bus_stations:
- id: 262540013
  name: Terminal Tambak Osowilangon
  latitude: -7.218327700000001
  longitude: 112.65295127142859
  type: bus_station
- id: 275493021
  name: Terminal Kedung Cowek
  latitude: -7.212761349999998
  longitude: 112.77938603333332
  type: bus_station
- id: 320141897
  name: Terminal Benowo
  latitude: -7.235529120000001
  longitude: 112.60792092000001
  type: bus_station
- id: 454173811
  name: Terminal Kalimas Barat
  latitude: -7.22307526
  longitude: 112.73784916
  type: bus_station
- id: 455261261
  name: Ujung Baru
  latitude: -7.199004133333333
  longitude: 112.73464803333333
  type: bus_station
- id: 459921946
  name: Terminal Dukuh Kupang
  latitude: -7.281334999999999
  longitude: 112.71191816000001
  type: bus_station
- id: 466854271
  name: Terminal Intermoda Joyoboyo
  latitude: -7.298952136363638
  longitude: 112.73644234545455
  type: bus_station
- id: 467064615
  name: Terminal Menanggal
  latitude: -7.34152675
  longitude: 112.722574725
  type: bus_station
- id: 485783914
  name: Terminal Keputih
  latitude: -7.294642145454546
  longitude: 112.80182369090909
  type: bus_station
- id: 486883056
  name: Terminal Balongsari
  latitude: -7.259189000000001
  longitude: 112.67865146
  type: bus_station
- id: 486886496
  name: Terminal Bratang
  latitude: -7.298925781818181
  longitude: 112.76164082727274
  type: bus_station
- id: 486891854
  name: Terminal Kenjeran
  latitude: -7.24065332
  longitude: 112.7944988
  type: bus_station
- id: 486892144
  name: Terminal Manukan
  latitude: -7.26808776
  longitude: 112.66662702
  type: bus_station
- id: 7967496185
  name: Stasiun Benowo
  latitude: -7.2339372
  longitude: 112.6152001
  type: bus_station
- id: 7984622686
  name: Stasiun Tandes
  latitude: -7.2589001
  longitude: 112.6870173
  type: bus_station
- id: 7984622688
  name: Stasiun Mesigit
  latitude: -7.2411082
  longitude: 112.7269139
  type: bus_station
- id: 7991938286
  name: Stasiun Kalimas
  latitude: -7.2210357
  longitude: 112.7346335
  type: bus_station
- id: 9808022809
  name: Parkir Bus Kawasan Wisata Religi Ampal
  latitude: -7.2293636
  longitude: 112.7460215
  type: bus_station
- id: 11733317585
  name: Terminal Kasuari
  latitude: -7.2354104
  longitude: 112.7363327
  type: bus_station
