objects:
- id: 6703135
  name: Rumah Sakit TNI AL Dr. Oepomo
  alt_name: []
  latitude: -7.2119862964754855
  longitude: 112.72464139140874
  type: relation
  amenity_type: hospital
- id: 121862400
  name: Rumah Sakit Onkologi
  alt_name: []
  latitude: -7.290898424945649
  longitude: 112.789286556477
  type: way
  amenity_type: hospital
- id: 185053556
  name: RSIA PUSURA
  alt_name: []
  latitude: -7.2661802965447215
  longitude: 112.73705626907609
  type: way
  amenity_type: hospital
- id: 194433170
  name: RSU Haji Surabaya
  alt_name: []
  latitude: -7.282813268866051
  longitude: 112.77982731637103
  type: way
  amenity_type: hospital
- id: 257897278
  name: Rumah Sakit Universitas Airlangga
  alt_name: []
  latitude: -7.2698205867786765
  longitude: 112.78492219807507
  type: way
  amenity_type: hospital
- id: 280299555
  name: Rumah Sakit Darmo
  alt_name: []
  latitude: -7.287382378377592
  longitude: 112.73822743238584
  type: way
  amenity_type: hospital
- id: 307282253
  name: Rumah Sakit Jiwa Menur Provinsi Jawa Timur
  alt_name: []
  latitude: -7.286221520186437
  longitude: 112.76209256058716
  type: way
  amenity_type: hospital
- id: 320182744
  name: Rumah Sakit Khusus Infeksi
  alt_name: []
  latitude: -7.269999797221849
  longitude: 112.78649029239773
  type: way
  amenity_type: hospital
- id: 344100866
  name: Ciputra Hospital
  alt_name: []
  latitude: -7.280950492231623
  longitude: 112.63478001232733
  type: way
  amenity_type: hospital
- id: 376494209
  name: Rumah Sakit Katolik St. Vincentius A Paulo (RKZ)
  alt_name:
  - RSK St. Vincentius A Paulo
  latitude: -7.291969088512476
  longitude: 112.73548135955484
  type: way
  amenity_type: hospital
- id: 429077947
  name: RSIA Ferina Surabaya
  alt_name: []
  latitude: -7.273754607578166
  longitude: 112.74482815846441
  type: way
  amenity_type: hospital
- id: 446524876
  name: Rumah Sakit Angkatan Laut Dr. Ramelan
  alt_name: []
  latitude: -7.309331358601045
  longitude: 112.73819251655759
  type: way
  amenity_type: hospital
- id: 446537097
  name: National Hospital
  alt_name: []
  latitude: -7.299338756777277
  longitude: 112.67639074269734
  type: way
  amenity_type: hospital
- id: 447609697
  name: RS DKT Gubeng Pojok
  alt_name: []
  latitude: -7.265186300000001
  longitude: 112.75165094999998
  type: way
  amenity_type: hospital
- id: 447610406
  name: Rumah Sakit Adi Husada Kapasan
  alt_name: []
  latitude: -7.242667995130128
  longitude: 112.75190272445725
  type: way
  amenity_type: hospital
- id: 447615916
  name: Rumah Sakit Surabaya Medical Center
  alt_name: []
  latitude: -7.288966176291838
  longitude: 112.7413983651218
  type: way
  amenity_type: hospital
- id: 448107876
  name: RS Mata Undaan
  alt_name: []
  latitude: -7.254336987874544
  longitude: 112.74345563550595
  type: way
  amenity_type: hospital
- id: 448112158
  name: RS Ibu dan Anak Putri
  alt_name: []
  latitude: -7.290837961066238
  longitude: 112.7826842050845
  type: way
  amenity_type: hospital
- id: 448114210
  name: RS Manyar Medical Centre
  alt_name: []
  latitude: -7.289989493004655
  longitude: 112.76353954406878
  type: way
  amenity_type: hospital
- id: 448319033
  name: Rumah Sakit Gigi dan Mulut Dr. Soetomo
  alt_name: []
  latitude: -7.265410599999999
  longitude: 112.75739455
  type: way
  amenity_type: hospital
- id: 449621808
  name: Rumah Sakit Adi Husada Undaan Wetan
  alt_name: []
  latitude: -7.251490856752892
  longitude: 112.74591122534012
  type: way
  amenity_type: hospital
- id: 449624602
  name: Rumah Sakit Spesialis Husada Utama
  alt_name: []
  latitude: -7.264837806123377
  longitude: 112.75619484375333
  type: way
  amenity_type: hospital
- id: 449903849
  name: Rumah Sakit Pura Raharja
  alt_name: []
  latitude: -7.2831079999999995
  longitude: 112.75287575000002
  type: way
  amenity_type: hospital
- id: 450513383
  name: Siloam Hospitals
  alt_name: []
  latitude: -7.274031198763025
  longitude: 112.74639151855644
  type: way
  amenity_type: hospital
- id: 450694876
  name: Rumah Sakit Mata Undaan
  alt_name: []
  latitude: -7.254026035492877
  longitude: 112.74349057011416
  type: way
  amenity_type: hospital
- id: 450772004
  name: RSIA Kendangsari Merr
  alt_name: []
  latitude: -7.250655998511953
  longitude: 112.78364192860771
  type: way
  amenity_type: hospital
- id: 450927051
  name: RSUD Dr.M.Soewandhie
  alt_name: []
  latitude: -7.245971211923451
  longitude: 112.75798730475822
  type: way
  amenity_type: hospital
- id: 450968413
  name: Rumah Sakit Gotong Royong
  alt_name: []
  latitude: -7.307407015472887
  longitude: 112.78751333853644
  type: way
  amenity_type: hospital
- id: 450988751
  name: Klinik Estetika
  alt_name: []
  latitude: -7.308540887971501
  longitude: 112.73965895314375
  type: way
  amenity_type: hospital
- id: 451670191
  name: Rumah Sakit Mitra Keluarga
  alt_name: []
  latitude: -7.266671399425975
  longitude: 112.69127441567215
  type: way
  amenity_type: hospital
- id: 451857624
  name: RS Kodam Brawijaya
  alt_name: []
  latitude: -7.297284610462252
  longitude: 112.7228087444548
  type: way
  amenity_type: hospital
- id: 452200878
  name: Rumah Sakit Al Irsyad
  alt_name: []
  latitude: -7.2281429742116
  longitude: 112.74112164243301
  type: way
  amenity_type: hospital
- id: 452600945
  name: Rumah Sakit PKU Muhammadiyah Surabaya
  alt_name: []
  latitude: -7.229926474734713
  longitude: 112.74121777939902
  type: way
  amenity_type: hospital
- id: 452601170
  name: Rumah Sakit Paru
  alt_name: []
  latitude: -7.224075835197714
  longitude: 112.7464471579792
  type: way
  amenity_type: hospital
- id: 453637971
  name: RS Orthopedi & Traumatologi
  alt_name: []
  latitude: -7.299404144673038
  longitude: 112.66207258539362
  type: way
  amenity_type: hospital
- id: 454129371
  name: Rumah Sakit Marien
  alt_name: []
  latitude: -7.275633720590351
  longitude: 112.67965894950378
  type: way
  amenity_type: hospital
- id: 454131833
  name: Rumah Sakit Lombok Dua dua
  alt_name: []
  latitude: -7.284545580837926
  longitude: 112.66952035250868
  type: way
  amenity_type: hospital
- id: 455658137
  name: Rumah Sakit Wijaya
  alt_name: []
  latitude: -7.313098067120494
  longitude: 112.69170184957956
  type: way
  amenity_type: hospital
- id: 456713946
  name: Rs Marinir Ewa Pangalila
  alt_name: []
  latitude: -7.30467325422685
  longitude: 112.70843667800634
  type: way
  amenity_type: hospital
- id: 456740299
  name: Rumah Sakit Wiyung Sejahtera
  alt_name: []
  latitude: -7.311245277204806
  longitude: 112.68792101723692
  type: way
  amenity_type: hospital
- id: 457109445
  name: Rumah Sakit Ibu dan Anak IBI Surabaya
  alt_name: []
  latitude: -7.245326947442351
  longitude: 112.72775626867838
  type: way
  amenity_type: hospital
- id: 458235183
  name: RSU Bunda Surabaya
  alt_name: []
  latitude: -7.251732550000001
  longitude: 112.65043130000001
  type: way
  amenity_type: hospital
- id: 458639570
  name: RSIA Kendangsari
  alt_name: []
  latitude: -7.32533177334709
  longitude: 112.74550183370032
  type: way
  amenity_type: hospital
- id: 459481999
  name: Rumah Sakit Marinir Ewa Panggalila
  alt_name: []
  latitude: -7.303647269121165
  longitude: 112.70829638415644
  type: way
  amenity_type: hospital
- id: 461269463
  name: Rumah Sakit Royal Surabaya
  alt_name: []
  latitude: -7.328862756202596
  longitude: 112.75094145576684
  type: way
  amenity_type: hospital
- id: 462012644
  name: RSIA Graha Medika
  alt_name: []
  latitude: -7.31240345
  longitude: 112.68155955
  type: way
  amenity_type: hospital
- id: 462702755
  name: Rumah Sakit Muji Rahayu
  alt_name: []
  latitude: -7.25702612310383
  longitude: 112.670885587574
  type: way
  amenity_type: hospital
- id: 462704784
  name: Rumah Sakit Islam Surabaya
  alt_name: []
  latitude: -7.306292310896154
  longitude: 112.7347989359527
  type: way
  amenity_type: hospital
- id: 463387641
  name: RSIA Cempaka Putih Permata
  alt_name: []
  latitude: -7.321520943406298
  longitude: 112.71375710176754
  type: way
  amenity_type: hospital
- id: 463561564
  name: RSIA Lombok Dua Dua Surabaya
  alt_name: []
  latitude: -7.278483663308741
  longitude: 112.74891927140706
  type: way
  amenity_type: hospital
- id: 464048633
  name: RSU Bhakti Rahayu
  alt_name: []
  latitude: -7.312008504801073
  longitude: 112.7229585734563
  type: way
  amenity_type: hospital
- id: 464057071
  name: Rumah Sakit Mata Masyarakat Jawa Timur
  alt_name: []
  latitude: -7.326147832039903
  longitude: 112.72559810058617
  type: way
  amenity_type: hospital
- id: 464566820
  name: RSUD Dr. Soetomo
  alt_name: []
  latitude: -7.2682133035666805
  longitude: 112.75818328229762
  type: way
  amenity_type: hospital
- id: 464630285
  name: Rumah Sakit William Booth Surabaya
  alt_name: []
  latitude: -7.2911315477094645
  longitude: 112.7373144186196
  type: way
  amenity_type: hospital
- id: 465117740
  name: RSAU SOEMITRO
  alt_name: []
  latitude: -7.291535344416594
  longitude: 112.7409638190195
  type: way
  amenity_type: hospital
- id: 465127627
  name: RSUD Bhakti Dharma Husada
  alt_name: []
  latitude: -7.2556976436382925
  longitude: 112.63594879591999
  type: way
  amenity_type: hospital
- id: 465330021
  name: Rumah Sakit Bhayangkara HS Samsoeri Mertojoso
  alt_name: []
  latitude: -7.324402607924492
  longitude: 112.73026924134538
  type: way
  amenity_type: hospital
- id: 468637726
  name: Rumah Sakit Islam Darus Syifa'
  alt_name: []
  latitude: -7.235381346830168
  longitude: 112.61254248544716
  type: way
  amenity_type: hospital
- id: 470106207
  name: Rumah Sakit Islam Jemursari Surabaya
  alt_name: []
  latitude: -7.322612677398022
  longitude: 112.73974756155927
  type: way
  amenity_type: hospital
- id: 669873116
  name: Rumah Sakit PHC Surabaya
  alt_name: []
  latitude: -7.2095466019597145
  longitude: 112.73569963338953
  type: way
  amenity_type: hospital
- id: 784664351
  name: Rumah Sakit Mitra Keluarga Kenjeran
  alt_name: []
  latitude: -7.251261001074521
  longitude: 112.78501944034053
  type: way
  amenity_type: hospital
- id: 921951024
  name: RS Premier Surabaya
  alt_name: []
  latitude: -7.304650201959349
  longitude: 112.76524782814836
  type: way
  amenity_type: hospital
- id: 985433940
  name: Mayapada Hospital
  alt_name: []
  latitude: -7.291958822891112
  longitude: 112.7276676451383
  type: way
  amenity_type: hospital
- id: 1189920586
  name: Rumah Sakit Universitas Surabaya
  alt_name: []
  latitude: -7.314089401829469
  longitude: 112.7662098501123
  type: way
  amenity_type: hospital
- id: 9824048049
  name: RSGM Nala Husada
  alt_name: []
  latitude: -7.2911822
  longitude: 112.7951887
  type: node
  amenity_type: hospital
- id: 9833059949
  name: Klinik Gigi RKZ
  alt_name: []
  latitude: -7.2931451
  longitude: 112.7354954
  type: node
  amenity_type: hospital
- id: 12292717236
  name: RS Katolik Vincentius A Poli
  alt_name: []
  latitude: -7.2912069
  longitude: 112.7362614
  type: node
  amenity_type: hospital
