objects:
- id: 35603368
  name: Masjid Nasional Al-Akbar
  alt_name: []
  latitude: -7.336518000583381
  longitude: 112.71523460421285
  type: way
  amenity_type: place_of_worship
- id: 119293110
  name: Mushola Vokasi
  alt_name: []
  latitude: -7.278582324123819
  longitude: 112.79248706238522
  type: way
  amenity_type: place_of_worship
- id: 119487711
  name: Masjid Manarul Ilmi
  alt_name: []
  latitude: -7.282358262431876
  longitude: 112.79307774836643
  type: way
  amenity_type: place_of_worship
- id: 119490387
  name: Musholla
  alt_name: []
  latitude: -7.27639015
  longitude: 112.79298455
  type: way
  amenity_type: place_of_worship
- id: 119491674
  name: Masjid Jami Besar Al-Ibrahim
  alt_name: []
  latitude: -7.281285531288163
  longitude: 112.78690355790225
  type: way
  amenity_type: place_of_worship
- id: 119759492
  name: Masjid Al Mabruk
  alt_name: []
  latitude: -7.291963293999725
  longitude: 112.80925963000357
  type: way
  amenity_type: place_of_worship
- id: 119770582
  name: Masjid Darul Falah
  alt_name: []
  latitude: -7.339002096890903
  longitude: 112.76778760641531
  type: way
  amenity_type: place_of_worship
- id: 121270332
  name: Masjid Ahmad Yani
  alt_name: []
  latitude: -7.275403452141521
  longitude: 112.79296987800848
  type: way
  amenity_type: place_of_worship
- id: 121270333
  name: Masjid Jami' Nurul Mu'minin
  alt_name: []
  latitude: -7.2736405061170455
  longitude: 112.80054247401793
  type: way
  amenity_type: place_of_worship
- id: 121270334
  name: Masjid Baitul Muttaqin
  alt_name: []
  latitude: -7.288760186529168
  longitude: 112.79970747423101
  type: way
  amenity_type: place_of_worship
- id: 122096783
  name: Masjid Nurul Iman
  alt_name: []
  latitude: -7.313836851112115
  longitude: 112.74845175868879
  type: way
  amenity_type: place_of_worship
- id: 123826609
  name: Gereja Kristus Tuhan Hosana Bumi Permai
  alt_name: []
  latitude: -7.296267322018474
  longitude: 112.78392138946606
  type: way
  amenity_type: place_of_worship
- id: 137771017
  name: Masjid At-Taqwa
  alt_name: []
  latitude: -7.212230657703767
  longitude: 112.72563512054334
  type: way
  amenity_type: place_of_worship
- id: 155884029
  name: Gereja Sidang Jemaat Allah
  alt_name: []
  latitude: -7.25617995
  longitude: 112.74520354999999
  type: way
  amenity_type: place_of_worship
- id: 155884099
  name: Gereja BPIB Maranatha
  alt_name: []
  latitude: -7.260841150000002
  longitude: 112.74617775000002
  type: way
  amenity_type: place_of_worship
- id: 184885897
  name: Gereja Kristus Terang Dunia
  alt_name: []
  latitude: -7.266661499999999
  longitude: 112.74202424999999
  type: way
  amenity_type: place_of_worship
- id: 184885922
  name: Gereja Baptis Indonesia Imanuel
  alt_name: []
  latitude: -7.258058949999999
  longitude: 112.7457107
  type: way
  amenity_type: place_of_worship
- id: 185022354
  name: Masjid As Sayyid Abbas Almaliky
  alt_name: []
  latitude: -7.274457864494587
  longitude: 112.73989821574675
  type: way
  amenity_type: place_of_worship
- id: 185055135
  name: Gereja Injili Indonesia
  alt_name: []
  latitude: -7.267730508941233
  longitude: 112.74532204606321
  type: way
  amenity_type: place_of_worship
- id: 185056780
  name: Gereja Kristen Abdiel Elyon
  alt_name: []
  latitude: -7.26742144439387
  longitude: 112.73730139591005
  type: way
  amenity_type: place_of_worship
- id: 212951960
  name: Masjid Baitul Mujahidin
  alt_name: []
  latitude: -7.271189950000003
  longitude: 112.71267990000001
  type: way
  amenity_type: place_of_worship
- id: 215152118
  name: Masjid Al Falah
  alt_name: []
  latitude: -7.26880575
  longitude: 112.71180675
  type: way
  amenity_type: place_of_worship
- id: 215152119
  name: Masjid Baitul Ilmin
  alt_name: []
  latitude: -7.268649669338129
  longitude: 112.71208984263956
  type: way
  amenity_type: place_of_worship
- id: 233536877
  name: Masjid Baitussalam
  alt_name: []
  latitude: -7.3170940530106865
  longitude: 112.72183751908302
  type: way
  amenity_type: place_of_worship
- id: 295270094
  name: Masjid An Nur
  alt_name: []
  latitude: -7.310141146457777
  longitude: 112.74801667464673
  type: way
  amenity_type: place_of_worship
- id: 307159363
  name: Masjid As Sa'adah
  alt_name: []
  latitude: -7.28986214685117
  longitude: 112.79694798859924
  type: way
  amenity_type: place_of_worship
- id: 307159400
  name: Musholla Salman
  alt_name: []
  latitude: -7.288580326993518
  longitude: 112.79778930192936
  type: way
  amenity_type: place_of_worship
- id: 307258696
  name: Masjid Al Madani
  alt_name: []
  latitude: -7.265270868428905
  longitude: 112.80296479298613
  type: way
  amenity_type: place_of_worship
- id: 307261122
  name: Masjid FKH
  alt_name: []
  latitude: -7.270248685595932
  longitude: 112.78692688379012
  type: way
  amenity_type: place_of_worship
- id: 307349688
  name: Masjid As-Sakinah
  alt_name: []
  latitude: -7.270312034921101
  longitude: 112.75988319452382
  type: way
  amenity_type: place_of_worship
- id: 307387919
  name: Masjid Al Muttaqien
  alt_name: []
  latitude: -7.244539834393091
  longitude: 112.79010222234436
  type: way
  amenity_type: place_of_worship
- id: 307387951
  name: Gereja Protestan Jemaat Nazareth
  alt_name: []
  latitude: -7.24531845
  longitude: 112.79335694999999
  type: way
  amenity_type: place_of_worship
- id: 307388026
  name: Masjid An-Nur
  alt_name: []
  latitude: -7.242759654735897
  longitude: 112.78971032473547
  type: way
  amenity_type: place_of_worship
- id: 308348739
  name: Masjid Haqqul Yaqien
  alt_name: []
  latitude: -7.289841381132931
  longitude: 112.77307360714475
  type: way
  amenity_type: place_of_worship
- id: 311268597
  name: Masjid KONI
  alt_name: []
  latitude: -7.281003248702919
  longitude: 112.78056106774652
  type: way
  amenity_type: place_of_worship
- id: 311395471
  name: Masjid Al Maghfirah
  alt_name: []
  latitude: -7.327382950000001
  longitude: 112.7734836
  type: way
  amenity_type: place_of_worship
- id: 311407629
  name: Masjid Istiqomah
  alt_name: []
  latitude: -7.333524004651316
  longitude: 112.7905868142966
  type: way
  amenity_type: place_of_worship
- id: 315731313
  name: Darul Fikri
  alt_name: []
  latitude: -7.2715505
  longitude: 112.7591542
  type: way
  amenity_type: place_of_worship
- id: 315762840
  name: Masjid Al Ittihaad
  alt_name: []
  latitude: -7.26695325
  longitude: 112.75303919999998
  type: way
  amenity_type: place_of_worship
- id: 319645338
  name: Masjid Baitul Falah
  alt_name: []
  latitude: -7.290030510441733
  longitude: 112.75250385794475
  type: way
  amenity_type: place_of_worship
- id: 319649040
  name: Masjid Kautsar Ikhlas
  alt_name: []
  latitude: -7.296323808551026
  longitude: 112.74977651776838
  type: way
  amenity_type: place_of_worship
- id: 319670135
  name: Masjid Baabusallam
  alt_name: []
  latitude: -7.2745448297168975
  longitude: 112.75649292873281
  type: way
  amenity_type: place_of_worship
- id: 319673538
  name: Masjid Al-Ikhlas
  alt_name: []
  latitude: -7.30820307842573
  longitude: 112.7814715096871
  type: way
  amenity_type: place_of_worship
- id: 319955571
  name: Masjid Muttaqien
  alt_name: []
  latitude: -7.268637254744567
  longitude: 112.66625864588799
  type: way
  amenity_type: place_of_worship
- id: 320103381
  name: Masjid Al Quddus
  alt_name: []
  latitude: -7.305775849719996
  longitude: 112.77478333522099
  type: way
  amenity_type: place_of_worship
- id: 320141898
  name: Masjid Al Ikhlas
  alt_name: []
  latitude: -7.237571230418358
  longitude: 112.60966404725988
  type: way
  amenity_type: place_of_worship
- id: 321204839
  name: Masjid At Tin
  alt_name: []
  latitude: -7.2267758163520766
  longitude: 112.77835611926822
  type: way
  amenity_type: place_of_worship
- id: 321204847
  name: Musholla
  alt_name: []
  latitude: -7.226712858909576
  longitude: 112.77945710452198
  type: way
  amenity_type: place_of_worship
- id: 350820465
  name: Masjid Al-Hikmah
  alt_name: []
  latitude: -7.302129795413392
  longitude: 112.66917769331017
  type: way
  amenity_type: place_of_worship
- id: 350820470
  name: Masjid Baitul Makmur
  alt_name: []
  latitude: -7.303506997831903
  longitude: 112.67302109418682
  type: way
  amenity_type: place_of_worship
- id: 350857254
  name: Masjid Baitul Muttaqin
  alt_name: []
  latitude: -7.303146473631921
  longitude: 112.75384028887386
  type: way
  amenity_type: place_of_worship
- id: 376504156
  name: Masjid Achmad Klampis Ngasem
  alt_name: []
  latitude: -7.285937408539323
  longitude: 112.77457522230412
  type: way
  amenity_type: place_of_worship
- id: 376918850
  name: Gereja Katolik Kelahiran Santa Perawan Maria
  alt_name:
  - Kepanjen Church
  latitude: -7.242081703366036
  longitude: 112.73694641037311
  type: way
  amenity_type: place_of_worship
- id: 381187065
  name: Masjid An Nur
  alt_name: []
  latitude: -7.256233400000001
  longitude: 112.75006124999999
  type: way
  amenity_type: place_of_worship
- id: 389893587
  name: Masjid Habiburrozaq
  alt_name: []
  latitude: -7.304948331008861
  longitude: 112.64237090686713
  type: way
  amenity_type: place_of_worship
- id: 394257086
  name: Masjid Baiturrozaq
  alt_name: []
  latitude: -7.2832537193191875
  longitude: 112.65657498407079
  type: way
  amenity_type: place_of_worship
- id: 422548631
  name: Masjid Al Amiin
  alt_name: []
  latitude: -7.251154133698875
  longitude: 112.72839205794394
  type: way
  amenity_type: place_of_worship
- id: 422952963
  name: Gereja Pantekosta Kristus Gembala
  alt_name: []
  latitude: -7.268996340595522
  longitude: 112.74261964360433
  type: way
  amenity_type: place_of_worship
- id: 423210072
  name: Gereja Kristen Abdiel Trinitas
  alt_name: []
  latitude: -7.267820271888175
  longitude: 112.74852465158727
  type: way
  amenity_type: place_of_worship
- id: 423456697
  name: Gereja Yesus Kristus
  alt_name: []
  latitude: -7.291297486891958
  longitude: 112.74610226936768
  type: way
  amenity_type: place_of_worship
- id: 423456723
  name: GBI Berkat Bagi Bangsa
  alt_name: []
  latitude: -7.291164412239229
  longitude: 112.74548257303664
  type: way
  amenity_type: place_of_worship
- id: 432823669
  name: Masjid Al Muhajirin
  alt_name: []
  latitude: -7.324621018127203
  longitude: 112.69856644489374
  type: way
  amenity_type: place_of_worship
- id: 435125348
  name: Gereja Katolik Hati Kudus Yesus
  alt_name: []
  latitude: -7.281078810140774
  longitude: 112.74232838141472
  type: way
  amenity_type: place_of_worship
- id: 435125351
  name: Keuskupan Surabaya
  alt_name: []
  latitude: -7.281277137008202
  longitude: 112.74204062686405
  type: way
  amenity_type: place_of_worship
- id: 435198451
  name: Masjid Ulul Azmi
  alt_name: []
  latitude: -7.268172127863999
  longitude: 112.78329148390085
  type: way
  amenity_type: place_of_worship
- id: 439640029
  name: Gereja Katolik Santo Yakobus
  alt_name: []
  latitude: -7.293136761372424
  longitude: 112.65469200852976
  type: way
  amenity_type: place_of_worship
- id: 441379993
  name: Gereja Bethany Citraland
  alt_name: []
  latitude: -7.293899529514055
  longitude: 112.65231519606353
  type: way
  amenity_type: place_of_worship
- id: 442545672
  name: Masjid Salafy
  alt_name: []
  latitude: -7.233660549999999
  longitude: 112.74541145
  type: way
  amenity_type: place_of_worship
- id: 442719846
  name: Masjid Baitul Hamdi
  alt_name: []
  latitude: -7.246363100000002
  longitude: 112.7399694
  type: way
  amenity_type: place_of_worship
- id: 445058770
  name: Masjid Hidayatullah
  alt_name: []
  latitude: -7.282446652456984
  longitude: 112.80207094216892
  type: way
  amenity_type: place_of_worship
- id: 445260312
  name: Masjid Baitul Muttaqin
  alt_name: []
  latitude: -7.283533918211799
  longitude: 112.66726299129493
  type: way
  amenity_type: place_of_worship
- id: 446524892
  name: Masjid Shalahuddin Kanwil Direktorat Djendral Pajak Jawa Timur I
  alt_name: []
  latitude: -7.303358544718646
  longitude: 112.7452579817129
  type: way
  amenity_type: place_of_worship
- id: 446941716
  name: Masjid Asqhal Madinah
  alt_name: []
  latitude: -7.27714275
  longitude: 112.80073180000002
  type: way
  amenity_type: place_of_worship
- id: 446946081
  name: Gereja Torsina
  alt_name: []
  latitude: -7.27768692436588
  longitude: 112.76104813576814
  type: way
  amenity_type: place_of_worship
- id: 446966034
  name: Masjid Poltekes
  alt_name: []
  latitude: -7.284267975558872
  longitude: 112.76111011325624
  type: way
  amenity_type: place_of_worship
- id: 447125787
  name: Masjid Irsyasduddiin
  alt_name: []
  latitude: -7.286329097782406
  longitude: 112.78548566513854
  type: way
  amenity_type: place_of_worship
- id: 447127196
  name: HURIA KRISTEN BATAK ( HKB )
  alt_name: []
  latitude: -7.277311835190093
  longitude: 112.76514529933807
  type: way
  amenity_type: place_of_worship
- id: 447127362
  name: Baitul Muttaqin
  alt_name: []
  latitude: -7.27716495
  longitude: 112.764365
  type: way
  amenity_type: place_of_worship
- id: 447130743
  name: GBT Mawar Saron
  alt_name: []
  latitude: -7.268506484990011
  longitude: 112.79562581580308
  type: way
  amenity_type: place_of_worship
- id: 447132767
  name: Gereja Wisma Mukti
  alt_name: []
  latitude: -7.292956705462676
  longitude: 112.77906591232573
  type: way
  amenity_type: place_of_worship
- id: 447147509
  name: Masjid Al-Hidayah
  alt_name: []
  latitude: -7.309041349999999
  longitude: 112.77732305
  type: way
  amenity_type: place_of_worship
- id: 447148474
  name: Gereja Jemaat Bhaskara
  alt_name: []
  latitude: -7.2669043540521185
  longitude: 112.79915109603259
  type: way
  amenity_type: place_of_worship
- id: 447161949
  name: Masjid Baitul Haq (LDII)
  alt_name: []
  latitude: -7.2958190499999995
  longitude: 112.80214134999999
  type: way
  amenity_type: place_of_worship
- id: 447166492
  name: Masjid Nur-Hasan
  alt_name: []
  latitude: -7.2964678
  longitude: 112.80044554999998
  type: way
  amenity_type: place_of_worship
- id: 447339279
  name: Masjid Al Muttaqin
  alt_name: []
  latitude: -7.301093520568545
  longitude: 112.76105024142
  type: way
  amenity_type: place_of_worship
- id: 447343995
  name: Masjid Al-Amaliyah
  alt_name: []
  latitude: -7.248655191446031
  longitude: 112.78404002896384
  type: way
  amenity_type: place_of_worship
- id: 447348341
  name: Gereja Reformed Injili Indonesia
  alt_name: []
  latitude: -7.27812795
  longitude: 112.77356745
  type: way
  amenity_type: place_of_worship
- id: 447352164
  name: Gereja Betany Manyar
  alt_name: []
  latitude: -7.296506523515269
  longitude: 112.76444388934223
  type: way
  amenity_type: place_of_worship
- id: 447356228
  name: Masjid Al Iman
  alt_name: []
  latitude: -7.2657999797562525
  longitude: 112.7906226141829
  type: way
  amenity_type: place_of_worship
- id: 447371828
  name: Gereja Bethany Indonesia
  alt_name: []
  latitude: -7.270877951422477
  longitude: 112.79214896841326
  type: way
  amenity_type: place_of_worship
- id: 447471815
  name: Masjid Al Musthofa
  alt_name: []
  latitude: -7.30522095
  longitude: 112.7976007
  type: way
  amenity_type: place_of_worship
- id: 447608377
  name: Masjid Thariqul Jannah
  alt_name: []
  latitude: -7.215120649999999
  longitude: 112.77859844999999
  type: way
  amenity_type: place_of_worship
- id: 447609054
  name: Masjid Al Mustajabah
  alt_name: []
  latitude: -7.2750938164853345
  longitude: 112.73660966865897
  type: way
  amenity_type: place_of_worship
- id: 447609554
  name: Gereja Bethel Indonesia
  alt_name: []
  latitude: -7.24449402086757
  longitude: 112.75196421640497
  type: way
  amenity_type: place_of_worship
- id: 447609875
  name: Mbahjugho Cab. Gunung Kawi
  alt_name: []
  latitude: -7.287886769685161
  longitude: 112.7445544212668
  type: way
  amenity_type: place_of_worship
- id: 447610317
  name: Masjid At Taqwa
  alt_name: []
  latitude: -7.305092230385154
  longitude: 112.7631904577059
  type: way
  amenity_type: place_of_worship
- id: 447610598
  name: HKBP Surabaya
  alt_name: []
  latitude: -7.272200313021185
  longitude: 112.73784723700206
  type: way
  amenity_type: place_of_worship
- id: 447610616
  name: Gereja Mawar Sharon
  alt_name: []
  latitude: -7.270291053961118
  longitude: 112.73816707057055
  type: way
  amenity_type: place_of_worship
- id: 447610620
  name: Annex Building Gereja Mawar Sharon
  alt_name: []
  latitude: -7.2706360432812325
  longitude: 112.73859697921081
  type: way
  amenity_type: place_of_worship
- id: 447610634
  name: Gereja Pantekosta
  alt_name: []
  latitude: -7.245006152730684
  longitude: 112.76392339141789
  type: way
  amenity_type: place_of_worship
- id: 447611381
  name: Masjid Al-Hikmah
  alt_name: []
  latitude: -7.243121617068281
  longitude: 112.76395687178325
  type: way
  amenity_type: place_of_worship
- id: 447612175
  name: Masjid Al-Falah
  alt_name: []
  latitude: -7.2445877471109155
  longitude: 112.75004143397773
  type: way
  amenity_type: place_of_worship
- id: 447612958
  name: Masjid Al-Amin
  alt_name: []
  latitude: -7.297440217405956
  longitude: 112.76349551911261
  type: way
  amenity_type: place_of_worship
- id: 447613062
  name: Masjid Al-Mukhlasin
  alt_name: []
  latitude: -7.26033288075375
  longitude: 112.73286990828348
  type: way
  amenity_type: place_of_worship
- id: 447613099
  name: Gereja Pentakosta
  alt_name: []
  latitude: -7.271664200000001
  longitude: 112.7383635
  type: way
  amenity_type: place_of_worship
- id: 447613198
  name: Masjid Jami Miftahul Abidin
  alt_name: []
  latitude: -7.21935161544935
  longitude: 112.77675919778414
  type: way
  amenity_type: place_of_worship
- id: 447614317
  name: Masjid Roudlotul Jannah
  alt_name: []
  latitude: -7.26231045
  longitude: 112.7613375
  type: way
  amenity_type: place_of_worship
- id: 447615579
  name: Masjid KH. Agus Salim
  alt_name: []
  latitude: -7.29192535894125
  longitude: 112.76213922322832
  type: way
  amenity_type: place_of_worship
- id: 447615970
  name: Masjid Nurul Huda
  alt_name: []
  latitude: -7.263540174093227
  longitude: 112.75728141102815
  type: way
  amenity_type: place_of_worship
- id: 447616760
  name: Masjid Asma Nawawi
  alt_name: []
  latitude: -7.223400632947969
  longitude: 112.78578801824938
  type: way
  amenity_type: place_of_worship
- id: 447616790
  name: Masjid Biqudradillah
  alt_name: []
  latitude: -7.2231144
  longitude: 112.78713004999999
  type: way
  amenity_type: place_of_worship
- id: 447617411
  name: ST. Marinus Yohanes
  alt_name: []
  latitude: -7.247406114022344
  longitude: 112.78991237807824
  type: way
  amenity_type: place_of_worship
- id: 447617412
  name: Gereja St Marinus Yohanes
  alt_name: []
  latitude: -7.247437720843237
  longitude: 112.79051434703514
  type: way
  amenity_type: place_of_worship
- id: 447623921
  name: Masjid Abal Qosim
  alt_name: []
  latitude: -7.292181250000001
  longitude: 112.76427964999999
  type: way
  amenity_type: place_of_worship
- id: 447624429
  name: Masjid Ulil Albaab
  alt_name: []
  latitude: -7.29274925
  longitude: 112.76457805
  type: way
  amenity_type: place_of_worship
- id: 447624609
  name: Masjid Irsyadul Ibad
  alt_name: []
  latitude: -7.2628898
  longitude: 112.73676865
  type: way
  amenity_type: place_of_worship
- id: 447629437
  name: GPPS Jemaat Sawahan
  alt_name: []
  latitude: -7.2698975703388635
  longitude: 112.73991753690531
  type: way
  amenity_type: place_of_worship
- id: 447631302
  name: Gereja Bethany
  alt_name: []
  latitude: -7.249689830379153
  longitude: 112.78202150488671
  type: way
  amenity_type: place_of_worship
- id: 447631752
  name: Mushola Roudhotul Muslimin
  alt_name: []
  latitude: -7.2238759727792585
  longitude: 112.78512357810172
  type: way
  amenity_type: place_of_worship
- id: 447633086
  name: Masjid Al Furqon
  alt_name: []
  latitude: -7.237530228145696
  longitude: 112.76717824604977
  type: way
  amenity_type: place_of_worship
- id: 447633090
  name: Masjid Ainul Hasan
  alt_name: []
  latitude: -7.239140999999999
  longitude: 112.7668568
  type: way
  amenity_type: place_of_worship
- id: 447635463
  name: Masjid Nurullah
  alt_name: []
  latitude: -7.262936700000002
  longitude: 112.73325894999999
  type: way
  amenity_type: place_of_worship
- id: 447637060
  name: Masjid Al Hikmah
  alt_name: []
  latitude: -7.246676578958301
  longitude: 112.76821386237428
  type: way
  amenity_type: place_of_worship
- id: 447640081
  name: Masjid Jami' Kertajaya
  alt_name: []
  latitude: -7.2783766227121
  longitude: 112.7550600447884
  type: way
  amenity_type: place_of_worship
- id: 447641258
  name: Masjid Al Hidayah
  alt_name: []
  latitude: -7.2877757257510085
  longitude: 112.74046014501678
  type: way
  amenity_type: place_of_worship
- id: 447642548
  name: Vihara Vimalakirti
  alt_name: []
  latitude: -7.288325288593779
  longitude: 112.74057984434126
  type: way
  amenity_type: place_of_worship
- id: 447643060
  name: Gereja Bethel Indonesia
  alt_name: []
  latitude: -7.257721450711329
  longitude: 112.75666718397802
  type: way
  amenity_type: place_of_worship
- id: 447643352
  name: Gereja Bala Keselamatan
  alt_name: []
  latitude: -7.24884804010372
  longitude: 112.74771669154701
  type: way
  amenity_type: place_of_worship
- id: 447648354
  name: Masjid Al Muttaqin
  alt_name: []
  latitude: -7.30319565
  longitude: 112.76670945000001
  type: way
  amenity_type: place_of_worship
- id: 447648519
  name: Masjid Sabilus Salam
  alt_name: []
  latitude: -7.304641150000001
  longitude: 112.76911865
  type: way
  amenity_type: place_of_worship
- id: 447712162
  name: Masjid Waqaf At Tawwabin
  alt_name: []
  latitude: -7.286875944055077
  longitude: 112.74321160035674
  type: way
  amenity_type: place_of_worship
- id: 448066390
  name: Masjid Ibrahim
  alt_name: []
  latitude: -7.264245925889909
  longitude: 112.74007945958829
  type: way
  amenity_type: place_of_worship
- id: 448067235
  name: Masjid Jendral Sudirman
  alt_name: []
  latitude: -7.266345043483905
  longitude: 112.75632842655853
  type: way
  amenity_type: place_of_worship
- id: 448067620
  name: Masjid Sholeh
  alt_name: []
  latitude: -7.264175950000001
  longitude: 112.73823620000002
  type: way
  amenity_type: place_of_worship
- id: 448068728
  name: Gereja Kristus Tuhan
  alt_name: []
  latitude: -7.257587276565229
  longitude: 112.75131575605695
  type: way
  amenity_type: place_of_worship
- id: 448068936
  name: Masjid Baitul Fikri
  alt_name: []
  latitude: -7.2994918
  longitude: 112.76775225
  type: way
  amenity_type: place_of_worship
- id: 448069848
  name: Vihara Dana Maitreya
  alt_name: []
  latitude: -7.2498690794662055
  longitude: 112.74650672376723
  type: way
  amenity_type: place_of_worship
- id: 448070426
  name: Gereja Bethel Indonesia Ambengan
  alt_name: []
  latitude: -7.256320286411538
  longitude: 112.75199001879608
  type: way
  amenity_type: place_of_worship
- id: 448070674
  name: Masjid Miftahul Huda
  alt_name: []
  latitude: -7.245754
  longitude: 112.7829515
  type: way
  amenity_type: place_of_worship
- id: 448070924
  name: Masjid Muhajirin
  alt_name: []
  latitude: -7.257027304247065
  longitude: 112.7525036693944
  type: way
  amenity_type: place_of_worship
- id: 448071550
  name: Masjid Nurul Hidayah
  alt_name: []
  latitude: -7.246908445916438
  longitude: 112.77906447967358
  type: way
  amenity_type: place_of_worship
- id: 448073180
  name: Masjid Al-Azar
  alt_name: []
  latitude: -7.252814179771227
  longitude: 112.7544357639124
  type: way
  amenity_type: place_of_worship
- id: 448075218
  name: Gereja Katolik Kristus Raja Surabaya
  alt_name: []
  latitude: -7.256242325334252
  longitude: 112.75452448472699
  type: way
  amenity_type: place_of_worship
- id: 448077525
  name: Masjid Al-Mu'allimin Jalan Ambengan Batu Tengah
  alt_name: []
  latitude: -7.255027599999999
  longitude: 112.75151345000002
  type: way
  amenity_type: place_of_worship
- id: 448077569
  name: Masjid Al Muallimin
  alt_name: []
  latitude: -7.255176466715155
  longitude: 112.752622339841
  type: way
  amenity_type: place_of_worship
- id: 448078373
  name: Mushola Ji'ronah
  alt_name: []
  latitude: -7.250784299999999
  longitude: 112.7564123
  type: way
  amenity_type: place_of_worship
- id: 448082275
  name: Masjid An Nur
  alt_name: []
  latitude: -7.268752349999999
  longitude: 112.7596663
  type: way
  amenity_type: place_of_worship
- id: 448084200
  name: Masjid Baitur Rouf
  alt_name: []
  latitude: -7.282400892288357
  longitude: 112.78905112545891
  type: way
  amenity_type: place_of_worship
- id: 448084245
  name: Langgar Wakaf Al-Hidayah
  alt_name: []
  latitude: -7.282783931073544
  longitude: 112.78865635215125
  type: way
  amenity_type: place_of_worship
- id: 448086882
  name: Masjid Attaqwa
  alt_name: []
  latitude: -7.248702099999998
  longitude: 112.75353264999998
  type: way
  amenity_type: place_of_worship
- id: 448088388
  name: Masjid As Syifa
  alt_name: []
  latitude: -7.266883450000001
  longitude: 112.76027164999998
  type: way
  amenity_type: place_of_worship
- id: 448091153
  name: Masjid Baitul Qodir
  alt_name: []
  latitude: -7.252847150000001
  longitude: 112.75911415
  type: way
  amenity_type: place_of_worship
- id: 448093722
  name: Masjid Muhajirin
  alt_name: []
  latitude: -7.283355342371532
  longitude: 112.77064352927918
  type: way
  amenity_type: place_of_worship
- id: 448095366
  name: Masjid Al-Ishlah
  alt_name: []
  latitude: -7.2457650185030555
  longitude: 112.76934186467545
  type: way
  amenity_type: place_of_worship
- id: 448095592
  name: Masjid Mubarak
  alt_name: []
  latitude: -7.275884145586489
  longitude: 112.74232041570144
  type: way
  amenity_type: place_of_worship
- id: 448095822
  name: Masjid Nabaussalam
  alt_name: []
  latitude: -7.248329799999999
  longitude: 112.76524365
  type: way
  amenity_type: place_of_worship
- id: 448097584
  name: Masjid Assakienah
  alt_name: []
  latitude: -7.289126381621264
  longitude: 112.78307445495223
  type: way
  amenity_type: place_of_worship
- id: 448098311
  name: Masjid Nurul Huda
  alt_name: []
  latitude: -7.288788292382778
  longitude: 112.76914702807764
  type: way
  amenity_type: place_of_worship
- id: 448102401
  name: Musholla
  alt_name: []
  latitude: -7.241152950000001
  longitude: 112.76293815000001
  type: way
  amenity_type: place_of_worship
- id: 448102529
  name: LDII
  alt_name: []
  latitude: -7.240663045461724
  longitude: 112.76172808079079
  type: way
  amenity_type: place_of_worship
- id: 448104065
  name: Musholla Kantor Kelurahan
  alt_name: []
  latitude: -7.2871698
  longitude: 112.78031575
  type: way
  amenity_type: place_of_worship
- id: 448105390
  name: Masjid At Taqwa
  alt_name: []
  latitude: -7.262431197324032
  longitude: 112.73379161344195
  type: way
  amenity_type: place_of_worship
- id: 448105658
  name: Masjid Mirah Al Ikhlas
  alt_name: []
  latitude: -7.2403896
  longitude: 112.77987865000001
  type: way
  amenity_type: place_of_worship
- id: 448106141
  name: Masjid An-Nur Klampis Aji
  alt_name: []
  latitude: -7.287551349999999
  longitude: 112.77759115
  type: way
  amenity_type: place_of_worship
- id: 448108088
  name: Masjid Nuurussalaam
  alt_name: []
  latitude: -7.2637304216345315
  longitude: 112.73562598451807
  type: way
  amenity_type: place_of_worship
- id: 448109121
  name: Gereja Pantekosta
  alt_name: []
  latitude: -7.2477224000000025
  longitude: 112.76124485
  type: way
  amenity_type: place_of_worship
- id: 448112079
  name: Masjid Baitul Mahfuudh
  alt_name: []
  latitude: -7.305090350000001
  longitude: 112.75451634999999
  type: way
  amenity_type: place_of_worship
- id: 448112247
  name: Masjid An-Nur
  alt_name: []
  latitude: -7.290329900000001
  longitude: 112.78153640000002
  type: way
  amenity_type: place_of_worship
- id: 448118739
  name: Masjid Al Ikhlas
  alt_name: []
  latitude: -7.228163350000003
  longitude: 112.7841443
  type: way
  amenity_type: place_of_worship
- id: 448118810
  name: Masjid Al Mi'raj Komplek TNI AU Kenjeran
  alt_name: []
  latitude: -7.250974099296854
  longitude: 112.79355226021838
  type: way
  amenity_type: place_of_worship
- id: 448165880
  name: Masjid Baabussalam
  alt_name: []
  latitude: -7.2312260421963135
  longitude: 112.79277397888858
  type: way
  amenity_type: place_of_worship
- id: 448177527
  name: Musholla Ar Rizqy
  alt_name: []
  latitude: -7.247219149999999
  longitude: 112.79303625
  type: way
  amenity_type: place_of_worship
- id: 448232209
  name: Majid Darussalam
  alt_name: []
  latitude: -7.256467428703037
  longitude: 112.79195225701662
  type: way
  amenity_type: place_of_worship
- id: 448233250
  name: Gereja Keluarga Allah Blessing
  alt_name: []
  latitude: -7.266542993616968
  longitude: 112.73575670606017
  type: way
  amenity_type: place_of_worship
- id: 448233740
  name: Yayasan Sahabat Sinoman Indonesia
  alt_name: []
  latitude: -7.249678199999999
  longitude: 112.74879304999997
  type: way
  amenity_type: place_of_worship
- id: 448233977
  name: Pura Segara
  alt_name: []
  latitude: -7.2380921
  longitude: 112.79063854999998
  type: way
  amenity_type: place_of_worship
- id: 448234279
  name: Masjid Muhajirin
  alt_name: []
  latitude: -7.250622112489342
  longitude: 112.77362681874119
  type: way
  amenity_type: place_of_worship
- id: 448234475
  name: Masjid Nurul Jadid
  alt_name: []
  latitude: -7.239778527567886
  longitude: 112.77739178837712
  type: way
  amenity_type: place_of_worship
- id: 448235505
  name: Gereja Kristen Indonesia Araya
  alt_name: []
  latitude: -7.298742374478459
  longitude: 112.78368548704128
  type: way
  amenity_type: place_of_worship
- id: 448236286
  name: Masjid Ash-Shiddiiq
  alt_name: []
  latitude: -7.249037221048746
  longitude: 112.77450176243802
  type: way
  amenity_type: place_of_worship
- id: 448236435
  name: Masjid Nurul Islam
  alt_name: []
  latitude: -7.255135099999999
  longitude: 112.7835068
  type: way
  amenity_type: place_of_worship
- id: 448240295
  name: Masjid Muhajidin
  alt_name: []
  latitude: -7.249524833578118
  longitude: 112.74538429353329
  type: way
  amenity_type: place_of_worship
- id: 448241498
  name: Masjid Rochman Arief
  alt_name: []
  latitude: -7.255419866341205
  longitude: 112.75759929395532
  type: way
  amenity_type: place_of_worship
- id: 448241837
  name: Masjid Taqwa
  alt_name: []
  latitude: -7.236606500000002
  longitude: 112.76093895000001
  type: way
  amenity_type: place_of_worship
- id: 448242386
  name: Masjid Al-Musyawaroh
  alt_name: []
  latitude: -7.249300900000001
  longitude: 112.7720652
  type: way
  amenity_type: place_of_worship
- id: 448242678
  name: Masjid Mu'Thi
  alt_name: []
  latitude: -7.294562600000002
  longitude: 112.7798924
  type: way
  amenity_type: place_of_worship
- id: 448243294
  name: Masjid Al Amin
  alt_name: []
  latitude: -7.234701798740276
  longitude: 112.76126872035715
  type: way
  amenity_type: place_of_worship
- id: 448243322
  name: Masjid Nurul Islam
  alt_name: []
  latitude: -7.2505803
  longitude: 112.7526872
  type: way
  amenity_type: place_of_worship
- id: 448244572
  name: Masjid Al Ittihad
  alt_name: []
  latitude: -7.30495665
  longitude: 112.79457180000001
  type: way
  amenity_type: place_of_worship
- id: 448245425
  name: GKI Lebak Jaya
  alt_name: []
  latitude: -7.245116649999999
  longitude: 112.77772365
  type: way
  amenity_type: place_of_worship
- id: 448245482
  name: Vihara Widiya Surya Padma
  alt_name: []
  latitude: -7.242723400000001
  longitude: 112.77797845000002
  type: way
  amenity_type: place_of_worship
- id: 448245654
  name: Gereja Bethel Indonesia
  alt_name: []
  latitude: -7.2481403
  longitude: 112.75374600000002
  type: way
  amenity_type: place_of_worship
- id: 448246008
  name: Masjid Ahmad Yani
  alt_name: []
  latitude: -7.238718684453347
  longitude: 112.76120632573864
  type: way
  amenity_type: place_of_worship
- id: 448247872
  name: Masjid Saifunnur
  alt_name: []
  latitude: -7.2635770908497
  longitude: 112.78364207467185
  type: way
  amenity_type: place_of_worship
- id: 448250963
  name: Masjid Gresikan I
  alt_name: []
  latitude: -7.256435600816633
  longitude: 112.76247386719845
  type: way
  amenity_type: place_of_worship
- id: 448250968
  name: Masjid Al Ishlah
  alt_name: []
  latitude: -7.257649900000001
  longitude: 112.7627095
  type: way
  amenity_type: place_of_worship
- id: 448252274
  name: Masjid Ibrahim Bin Muhammad
  alt_name: []
  latitude: -7.303343427234154
  longitude: 112.78892883790742
  type: way
  amenity_type: place_of_worship
- id: 448253218
  name: Mushollah Da'watus Sholihin
  alt_name: []
  latitude: -7.245787453691904
  longitude: 112.7984326215563
  type: way
  amenity_type: place_of_worship
- id: 448253251
  name: Masjid Miftahul Jannah
  alt_name: []
  latitude: -7.247265416049146
  longitude: 112.79724921394606
  type: way
  amenity_type: place_of_worship
- id: 448253351
  name: Masjid Nurul Hidayah
  alt_name: []
  latitude: -7.256344065193243
  longitude: 112.76132671913913
  type: way
  amenity_type: place_of_worship
- id: 448258536
  name: Gereja Oikumene
  alt_name: []
  latitude: -7.303955415549526
  longitude: 112.78767006265944
  type: way
  amenity_type: place_of_worship
- id: 448259815
  name: Masjid Al Mu'minun
  alt_name: []
  latitude: -7.300810662765979
  longitude: 112.75811127892337
  type: way
  amenity_type: place_of_worship
- id: 448262915
  name: Masjid Nurul Islam
  alt_name: []
  latitude: -7.309955555426706
  longitude: 112.77221491921908
  type: way
  amenity_type: place_of_worship
- id: 448263653
  name: Masjid Mamba'urrokhim
  alt_name: []
  latitude: -7.24540791525599
  longitude: 112.77626800594345
  type: way
  amenity_type: place_of_worship
- id: 448264681
  name: Masjid Roudhotul Jannah
  alt_name: []
  latitude: -7.29816015
  longitude: 112.77872685000003
  type: way
  amenity_type: place_of_worship
- id: 448264917
  name: Masjid Umar Bin Al-kath-thab
  alt_name: []
  latitude: -7.298608179915222
  longitude: 112.778103058101
  type: way
  amenity_type: place_of_worship
- id: 448267950
  name: Masjid Nashuha
  alt_name: []
  latitude: -7.2661772000000004
  longitude: 112.73298014999999
  type: way
  amenity_type: place_of_worship
- id: 448268090
  name: Masjid Al Istiqomah
  alt_name: []
  latitude: -7.302670600000001
  longitude: 112.78201419999999
  type: way
  amenity_type: place_of_worship
- id: 448268701
  name: Masjid Syamsul Falaah
  alt_name: []
  latitude: -7.267932820632487
  longitude: 112.80035493702036
  type: way
  amenity_type: place_of_worship
- id: 448269220
  name: Gereja Pantekosta Pusat Surabaya
  alt_name: []
  latitude: -7.248931310985052
  longitude: 112.74286625891989
  type: way
  amenity_type: place_of_worship
- id: 448269801
  name: Masjid Nurul Falah
  alt_name: []
  latitude: -7.301704118548564
  longitude: 112.77764063526936
  type: way
  amenity_type: place_of_worship
- id: 448270674
  name: Masjid Khoirul Huda
  alt_name: []
  latitude: -7.262358250000001
  longitude: 112.73500775000001
  type: way
  amenity_type: place_of_worship
- id: 448270952
  name: Masjid Darun Najah
  alt_name: []
  latitude: -7.245495921567859
  longitude: 112.75909839365099
  type: way
  amenity_type: place_of_worship
- id: 448272185
  name: Masjid Sholihin
  alt_name: []
  latitude: -7.247360783838322
  longitude: 112.76050486647512
  type: way
  amenity_type: place_of_worship
- id: 448272368
  name: Masjid Ash Shodiqin
  alt_name: []
  latitude: -7.26910805
  longitude: 112.72969489999997
  type: way
  amenity_type: place_of_worship
- id: 448273809
  name: Masjid Baitul Jamil
  alt_name: []
  latitude: -7.2936928266176775
  longitude: 112.77219030735492
  type: way
  amenity_type: place_of_worship
- id: 448274884
  name: Gereja Graha Gloria
  alt_name: []
  latitude: -7.256615214673234
  longitude: 112.74789440776235
  type: way
  amenity_type: place_of_worship
- id: 448276244
  name: Masjid Tiban
  alt_name: []
  latitude: -7.253483263769459
  longitude: 112.76246312219065
  type: way
  amenity_type: place_of_worship
- id: 448280863
  name: Masjid Al Hikmah
  alt_name: []
  latitude: -7.2694748
  longitude: 112.77000770000002
  type: way
  amenity_type: place_of_worship
- id: 448282163
  name: Gereja Kalam Hidup
  alt_name: []
  latitude: -7.301481737143323
  longitude: 112.75293612958102
  type: way
  amenity_type: place_of_worship
- id: 448288943
  name: Gereja Segala Bangsa
  alt_name: []
  latitude: -7.279171937308158
  longitude: 112.74430323570209
  type: way
  amenity_type: place_of_worship
- id: 448290889
  name: Masjid Assakinah
  alt_name: []
  latitude: -7.238818507247765
  longitude: 112.79328436969354
  type: way
  amenity_type: place_of_worship
- id: 448292863
  name: Masjid Al-Badar
  alt_name: []
  latitude: -7.2520522041622275
  longitude: 112.77507510574708
  type: way
  amenity_type: place_of_worship
- id: 448293038
  name: Graha GSJS
  alt_name: []
  latitude: -7.2591293
  longitude: 112.74928765
  type: way
  amenity_type: place_of_worship
- id: 448293625
  name: Islam Al - Mabrur
  alt_name: []
  latitude: -7.281914349999998
  longitude: 112.77308750000003
  type: way
  amenity_type: place_of_worship
- id: 448294860
  name: Masjid Miftahul Jannah
  alt_name: []
  latitude: -7.25619360529384
  longitude: 112.73502901323354
  type: way
  amenity_type: place_of_worship
- id: 448295752
  name: Masjid Nurul Hidayah
  alt_name: []
  latitude: -7.242522329906258
  longitude: 112.77434400838784
  type: way
  amenity_type: place_of_worship
- id: 448333071
  name: Masjid Al Mustofa
  alt_name: []
  latitude: -7.239443613035446
  longitude: 112.79538667152976
  type: way
  amenity_type: place_of_worship
- id: 448426614
  name: Masjid Masyithoh
  alt_name: []
  latitude: -7.27372267027711
  longitude: 112.79666577845532
  type: way
  amenity_type: place_of_worship
- id: 448436038
  name: Masjid At Taqwa
  alt_name: []
  latitude: -7.268244867960583
  longitude: 112.77689816540887
  type: way
  amenity_type: place_of_worship
- id: 448444566
  name: Masjid Arief Rahman Hakim
  alt_name: []
  latitude: -7.2533297
  longitude: 112.77310934999998
  type: way
  amenity_type: place_of_worship
- id: 448446364
  name: GBI Anugrah
  alt_name: []
  latitude: -7.251569929320303
  longitude: 112.77319345373238
  type: way
  amenity_type: place_of_worship
- id: 448449780
  name: Masjid Syamsul Huda
  alt_name: []
  latitude: -7.2646121500000005
  longitude: 112.73283135
  type: way
  amenity_type: place_of_worship
- id: 448450054
  name: Masjid Waqaf Al Maryam
  alt_name: []
  latitude: -7.26732305
  longitude: 112.72983484999997
  type: way
  amenity_type: place_of_worship
- id: 448450299
  name: Masjid Baitul Amien
  alt_name: []
  latitude: -7.251374480651773
  longitude: 112.7704389566108
  type: way
  amenity_type: place_of_worship
- id: 448450522
  name: Gereja Jemaat Kristen Indonesia Bukit Zion
  alt_name: []
  latitude: -7.2932416234082025
  longitude: 112.76992859230396
  type: way
  amenity_type: place_of_worship
- id: 448450680
  name: Masjid Nur Sobah
  alt_name: []
  latitude: -7.242375473621422
  longitude: 112.79843013894555
  type: way
  amenity_type: place_of_worship
- id: 448450681
  name: Masjid Sholihin
  alt_name: []
  latitude: -7.241444184270185
  longitude: 112.79834691146806
  type: way
  amenity_type: place_of_worship
- id: 448453939
  name: Masjid Syuhada
  alt_name: []
  latitude: -7.260303559554952
  longitude: 112.7598750438477
  type: way
  amenity_type: place_of_worship
- id: 448460644
  name: Masjid Al Ishlah
  alt_name: []
  latitude: -7.268085561527989
  longitude: 112.73301554686535
  type: way
  amenity_type: place_of_worship
- id: 448465176
  name: Masjid Al Ikhlas Pacar Kembang
  alt_name: []
  latitude: -7.261071699999999
  longitude: 112.764598
  type: way
  amenity_type: place_of_worship
- id: 448467379
  name: Gereja Bethel Injil Sepenuh 'Bukit Zaitun'
  alt_name: []
  latitude: -7.2688437586827295
  longitude: 112.73280656966178
  type: way
  amenity_type: place_of_worship
- id: 448469242
  name: Gereja Panteskosta Tabernakel Sion
  alt_name: []
  latitude: -7.25514995
  longitude: 112.77239635
  type: way
  amenity_type: place_of_worship
- id: 448469467
  name: Masjid Al-Marsu'ah
  alt_name: []
  latitude: -7.256042595897085
  longitude: 112.7726983316612
  type: way
  amenity_type: place_of_worship
- id: 448471039
  name: Masjid Padi Wojo II
  alt_name: []
  latitude: -7.270427852003564
  longitude: 112.7345277707315
  type: way
  amenity_type: place_of_worship
- id: 448472733
  name: Masjid An-nur
  alt_name: []
  latitude: -7.2697159
  longitude: 112.73640890000001
  type: way
  amenity_type: place_of_worship
- id: 448473823
  name: Gereja Betkel Raja Damai
  alt_name: []
  latitude: -7.256518443955719
  longitude: 112.77137660036229
  type: way
  amenity_type: place_of_worship
- id: 448474554
  name: Masjid Taqwallah
  alt_name: []
  latitude: -7.248686524263942
  longitude: 112.75672053454733
  type: way
  amenity_type: place_of_worship
- id: 448475603
  name: Masjid Al Hidayah
  alt_name: []
  latitude: -7.235648749999998
  longitude: 112.78040275
  type: way
  amenity_type: place_of_worship
- id: 448477364
  name: GBI Pengharapan
  alt_name: []
  latitude: -7.274749189564583
  longitude: 112.72857731414223
  type: way
  amenity_type: place_of_worship
- id: 448478893
  name: Masjid Nurul Huda Kapas Krampung
  alt_name: []
  latitude: -7.249033506752765
  longitude: 112.75872362070282
  type: way
  amenity_type: place_of_worship
- id: 448589942
  name: Masjid Noor Mushola
  alt_name: []
  latitude: -7.2502875117547685
  longitude: 112.76031479171311
  type: way
  amenity_type: place_of_worship
- id: 448590487
  name: Masjid Al Mu'minun
  alt_name: []
  latitude: -7.303844565373282
  longitude: 112.76541322261536
  type: way
  amenity_type: place_of_worship
- id: 448590508
  name: Masjid Khairul Huda
  alt_name: []
  latitude: -7.303676532546936
  longitude: 112.76375181590751
  type: way
  amenity_type: place_of_worship
- id: 448605724
  name: Masjid As Sakinah
  alt_name: []
  latitude: -7.259544519129504
  longitude: 112.76836549659856
  type: way
  amenity_type: place_of_worship
- id: 448622878
  name: Masjid Miftaqul Jannah
  alt_name: []
  latitude: -7.236554550000001
  longitude: 112.7684039
  type: way
  amenity_type: place_of_worship
- id: 448768599
  name: Pura Tirtawening
  alt_name: []
  latitude: -7.243720732769733
  longitude: 112.76825428464217
  type: way
  amenity_type: place_of_worship
- id: 448770104
  name: Masjid Assyafi'iyah
  alt_name: []
  latitude: -7.280734071793482
  longitude: 112.78877355807705
  type: way
  amenity_type: place_of_worship
- id: 448770795
  name: Masjid Maryam
  alt_name: []
  latitude: -7.281558871825021
  longitude: 112.76138747725706
  type: way
  amenity_type: place_of_worship
- id: 448770796
  name: Roudlotul Falah
  alt_name: []
  latitude: -7.266051
  longitude: 112.76174655
  type: way
  amenity_type: place_of_worship
- id: 448773012
  name: Gereja Kemah Injil Indonesia Surabaya
  alt_name: []
  latitude: -7.272840450000001
  longitude: 112.77199675
  type: way
  amenity_type: place_of_worship
- id: 448773014
  name: Masjid Jamiyatul Maarif
  alt_name: []
  latitude: -7.26885005
  longitude: 112.7723134
  type: way
  amenity_type: place_of_worship
- id: 448773017
  name: Masjid Baitunaim
  alt_name: []
  latitude: -7.265240639981553
  longitude: 112.76614107885305
  type: way
  amenity_type: place_of_worship
- id: 448775256
  name: Masjid Fathurrohim
  alt_name: []
  latitude: -7.299453995755944
  longitude: 112.77329048756002
  type: way
  amenity_type: place_of_worship
- id: 448779331
  name: Masjid Al-Mukminun
  alt_name: []
  latitude: -7.303201333074126
  longitude: 112.76814913357362
  type: way
  amenity_type: place_of_worship
- id: 448781746
  name: Musholla Polsek Gubeng
  alt_name: []
  latitude: -7.297562266592922
  longitude: 112.76122156598483
  type: way
  amenity_type: place_of_worship
- id: 449036036
  name: Masjid As-Syuro
  alt_name: []
  latitude: -7.2772269773094225
  longitude: 112.75928035851244
  type: way
  amenity_type: place_of_worship
- id: 449075122
  name: Musholla Hikudritolillah
  alt_name: []
  latitude: -7.2228278724619965
  longitude: 112.78731758796569
  type: way
  amenity_type: place_of_worship
- id: 449081483
  name: Masjid Al Mabrur
  alt_name: []
  latitude: -7.229072900000002
  longitude: 112.78711080000001
  type: way
  amenity_type: place_of_worship
- id: 449147739
  name: Masjid Al Islam
  alt_name: []
  latitude: -7.276634090023915
  longitude: 112.73932222709648
  type: way
  amenity_type: place_of_worship
- id: 449147740
  name: Masjid Faskho
  alt_name: []
  latitude: -7.275850541845339
  longitude: 112.74132477818418
  type: way
  amenity_type: place_of_worship
- id: 449149851
  name: Masjid Bustanul Huda
  alt_name: []
  latitude: -7.262288510641796
  longitude: 112.75861836611656
  type: way
  amenity_type: place_of_worship
- id: 449149862
  name: Masjid Nurul Islam
  alt_name: []
  latitude: -7.2632384000000005
  longitude: 112.75881845
  type: way
  amenity_type: place_of_worship
- id: 449150191
  name: Masjid Miftachul Huda
  alt_name: []
  latitude: -7.232868600000001
  longitude: 112.78495165000002
  type: way
  amenity_type: place_of_worship
- id: 449150192
  name: Masjid Riyadlul Jinaan
  alt_name: []
  latitude: -7.231738638525957
  longitude: 112.79340347389613
  type: way
  amenity_type: place_of_worship
- id: 449151830
  name: Masjid Al Marsu'ah
  alt_name: []
  latitude: -7.2579392742789315
  longitude: 112.77217504132767
  type: way
  amenity_type: place_of_worship
- id: 449151831
  name: Masjid Asmaul Husna
  alt_name: []
  latitude: -7.261779100390661
  longitude: 112.765292628329
  type: way
  amenity_type: place_of_worship
- id: 449151832
  name: Masjid At-Taqwa
  alt_name: []
  latitude: -7.259284033642025
  longitude: 112.7668678494519
  type: way
  amenity_type: place_of_worship
- id: 449151840
  name: Masjid Bustanul Huda
  alt_name: []
  latitude: -7.255697829698415
  longitude: 112.76727862880391
  type: way
  amenity_type: place_of_worship
- id: 449151855
  name: Masjid Al Muslimun
  alt_name: []
  latitude: -7.262108594072228
  longitude: 112.77028991490674
  type: way
  amenity_type: place_of_worship
- id: 449151856
  name: Masjid Amanah
  alt_name: []
  latitude: -7.261395186430822
  longitude: 112.77456332448878
  type: way
  amenity_type: place_of_worship
- id: 449151857
  name: Masjid Sabilul Muttaqin
  alt_name: []
  latitude: -7.2592156999999995
  longitude: 112.7695395
  type: way
  amenity_type: place_of_worship
- id: 449151861
  name: Masjid Roudlotul Jannah
  alt_name: []
  latitude: -7.261116846377797
  longitude: 112.7678623325808
  type: way
  amenity_type: place_of_worship
- id: 449174340
  name: Masjidillah
  alt_name: []
  latitude: -7.273978649999999
  longitude: 112.76215064999998
  type: way
  amenity_type: place_of_worship
- id: 449178005
  name: Masjid Al Fattah
  alt_name: []
  latitude: -7.258414859848927
  longitude: 112.74130686825083
  type: way
  amenity_type: place_of_worship
- id: 449182767
  name: Masjid Waqaf Al Jihad
  alt_name: []
  latitude: -7.273962538138043
  longitude: 112.7357297501459
  type: way
  amenity_type: place_of_worship
- id: 449182768
  name: Masjid Waqaf Nurudin
  alt_name: []
  latitude: -7.273539621880755
  longitude: 112.7368087933818
  type: way
  amenity_type: place_of_worship
- id: 449293999
  name: Gereja Kristen Indonesia
  alt_name: []
  latitude: -7.266638624862832
  longitude: 112.73758059270271
  type: way
  amenity_type: place_of_worship
- id: 449294001
  name: Masjid Nurul Huda
  alt_name: []
  latitude: -7.273633549999999
  longitude: 112.73885139999999
  type: way
  amenity_type: place_of_worship
- id: 449294002
  name: Masjid Sabilillah
  alt_name: []
  latitude: -7.275722469837447
  longitude: 112.7357233266252
  type: way
  amenity_type: place_of_worship
- id: 449294008
  name: Masjid Raden Rahmat
  alt_name: []
  latitude: -7.267178756094237
  longitude: 112.73593196586471
  type: way
  amenity_type: place_of_worship
- id: 449294391
  name: Gereja Pantekosta di Indonesia
  alt_name: []
  latitude: -7.265121806240982
  longitude: 112.73479744563014
  type: way
  amenity_type: place_of_worship
- id: 449296670
  name: Masjid Sabilul Muttaqin
  alt_name: []
  latitude: -7.247074499999998
  longitude: 112.76645209999997
  type: way
  amenity_type: place_of_worship
- id: 449296671
  name: Mushola
  alt_name: []
  latitude: -7.250239902231653
  longitude: 112.76509601967051
  type: way
  amenity_type: place_of_worship
- id: 449296682
  name: Gereja Bethel Tabernakel Kristus Pancaran Kasih
  alt_name: []
  latitude: -7.248176557729934
  longitude: 112.7623334921492
  type: way
  amenity_type: place_of_worship
- id: 449296739
  name: Masjid Al Anwar
  alt_name: []
  latitude: -7.282243381846891
  longitude: 112.76364311459257
  type: way
  amenity_type: place_of_worship
- id: 449296740
  name: Masjid Al Hadits
  alt_name: []
  latitude: -7.282986230340353
  longitude: 112.76664460615268
  type: way
  amenity_type: place_of_worship
- id: 449299294
  name: Masjid Al Hikmah
  alt_name: []
  latitude: -7.24754795
  longitude: 112.75748979999999
  type: way
  amenity_type: place_of_worship
- id: 449300207
  name: Gereja Utusan Pantekosta
  alt_name: []
  latitude: -7.247708500000004
  longitude: 112.75295635000002
  type: way
  amenity_type: place_of_worship
- id: 449300557
  name: Gereja Eben Haezer
  alt_name: []
  latitude: -7.285729172107203
  longitude: 112.73679334026758
  type: way
  amenity_type: place_of_worship
- id: 449304180
  name: Vihara Dhammadipa
  alt_name: []
  latitude: -7.27527116213907
  longitude: 112.73360473299502
  type: way
  amenity_type: place_of_worship
- id: 449309123
  name: Masjid Mirah Al Ikhlas
  alt_name: []
  latitude: -7.237487931608069
  longitude: 112.77390316904638
  type: way
  amenity_type: place_of_worship
- id: 449310963
  name: Masjid Nurul Aziz
  alt_name: []
  latitude: -7.238506350000001
  longitude: 112.78156775
  type: way
  amenity_type: place_of_worship
- id: 449312166
  name: Masjid Bani Roslani
  alt_name: []
  latitude: -7.2700547
  longitude: 112.73214454999999
  type: way
  amenity_type: place_of_worship
- id: 449315594
  name: Masjid Al Azhar
  alt_name: []
  latitude: -7.2393987000000015
  longitude: 112.77488570000001
  type: way
  amenity_type: place_of_worship
- id: 449316574
  name: Gereja Kristen Indonesia Manyar
  alt_name: []
  latitude: -7.285317619070467
  longitude: 112.76997656917645
  type: way
  amenity_type: place_of_worship
- id: 449316577
  name: Masjid Miftahul Jannah
  alt_name: []
  latitude: -7.282531922613109
  longitude: 112.77396473854333
  type: way
  amenity_type: place_of_worship
- id: 449316720
  name: Masjid Darussalam
  alt_name: []
  latitude: -7.246611296968333
  longitude: 112.7553957816963
  type: way
  amenity_type: place_of_worship
- id: 449322776
  name: Masjid Baitul Akhiroh
  alt_name: []
  latitude: -7.301267710805125
  longitude: 112.76325636012835
  type: way
  amenity_type: place_of_worship
- id: 449327205
  name: Masjid Arrohmah
  alt_name: []
  latitude: -7.23886322906222
  longitude: 112.77384930972293
  type: way
  amenity_type: place_of_worship
- id: 449328054
  name: Gereja GBI Tambak Anakan
  alt_name: []
  latitude: -7.247139725142311
  longitude: 112.75567843430468
  type: way
  amenity_type: place_of_worship
- id: 449331653
  name: Masjid Baitus Syakur
  alt_name: []
  latitude: -7.235936404678074
  longitude: 112.78135157118616
  type: way
  amenity_type: place_of_worship
- id: 449476754
  name: Masjid Al-Machfudz
  alt_name: []
  latitude: -7.265290358341759
  longitude: 112.77930442503133
  type: way
  amenity_type: place_of_worship
- id: 449510446
  name: Masjid Al Ikhlas Bumi Marina Mas
  alt_name: []
  latitude: -7.294102371074554
  longitude: 112.80510709894607
  type: way
  amenity_type: place_of_worship
- id: 449516147
  name: Masjid Bustanul Athfal
  alt_name: []
  latitude: -7.289444550000001
  longitude: 112.75938709999998
  type: way
  amenity_type: place_of_worship
- id: 449518121
  name: Gereja Cornelius
  alt_name: []
  latitude: -7.243735107796666
  longitude: 112.76990967339789
  type: way
  amenity_type: place_of_worship
- id: 449518152
  name: Masjid Al-Muchtarom
  alt_name: []
  latitude: -7.243564923375592
  longitude: 112.77269899144008
  type: way
  amenity_type: place_of_worship
- id: 449518153
  name: Masjid An-Najah
  alt_name: []
  latitude: -7.243069672566422
  longitude: 112.77117564377245
  type: way
  amenity_type: place_of_worship
- id: 449519057
  name: GKIN Betheda
  alt_name: []
  latitude: -7.2401455499999985
  longitude: 112.7824378
  type: way
  amenity_type: place_of_worship
- id: 449519089
  name: Masjid Al Fatah
  alt_name: []
  latitude: -7.239984300000001
  longitude: 112.78168705
  type: way
  amenity_type: place_of_worship
- id: 449519090
  name: Masjid Al Hafidz
  alt_name: []
  latitude: -7.235020499999997
  longitude: 112.7819519
  type: way
  amenity_type: place_of_worship
- id: 449519091
  name: Masjid Nur Hidayatulloh
  alt_name: []
  latitude: -7.236491229172013
  longitude: 112.77695741617094
  type: way
  amenity_type: place_of_worship
- id: 449620537
  name: Masjid Raudlotus Salikin
  alt_name: []
  latitude: -7.2302468
  longitude: 112.7552012
  type: way
  amenity_type: place_of_worship
- id: 449624131
  name: GBI Cahaya Kasih
  alt_name: []
  latitude: -7.232898473863737
  longitude: 112.75354979774836
  type: way
  amenity_type: place_of_worship
- id: 449624541
  name: Masjid Abdul Qodir
  alt_name: []
  latitude: -7.232306200000001
  longitude: 112.78346885
  type: way
  amenity_type: place_of_worship
- id: 449624542
  name: Masjid Al Faroch
  alt_name: []
  latitude: -7.233094688837353
  longitude: 112.77371742236221
  type: way
  amenity_type: place_of_worship
- id: 449624543
  name: Masjid Al Muhajirin
  alt_name: []
  latitude: -7.233810900000001
  longitude: 112.78264864999998
  type: way
  amenity_type: place_of_worship
- id: 449624544
  name: Masjid Attinah
  alt_name: []
  latitude: -7.229741149999997
  longitude: 112.7810811
  type: way
  amenity_type: place_of_worship
- id: 449624545
  name: Masjid Baitul Ghofur
  alt_name: []
  latitude: -7.231055400000001
  longitude: 112.7764684
  type: way
  amenity_type: place_of_worship
- id: 449624576
  name: Gereja Kristen Jawi Wetan
  alt_name: []
  latitude: -7.264939826323099
  longitude: 112.75568411058609
  type: way
  amenity_type: place_of_worship
- id: 449624583
  name: Masjid Al Muchlisin
  alt_name: []
  latitude: -7.256734250000001
  longitude: 112.75988550000001
  type: way
  amenity_type: place_of_worship
- id: 449624584
  name: Masjid Al Qithaar
  alt_name: []
  latitude: -7.26139255
  longitude: 112.75362339999998
  type: way
  amenity_type: place_of_worship
- id: 449625441
  name: Masjid Ar Rahman
  alt_name: []
  latitude: -7.244459050000001
  longitude: 112.75340565
  type: way
  amenity_type: place_of_worship
- id: 449628543
  name: Masjid Al Fitrah
  alt_name: []
  latitude: -7.221982034699763
  longitude: 112.7699672456047
  type: way
  amenity_type: place_of_worship
- id: 449629343
  name: Masjid Al-Akbar
  alt_name: []
  latitude: -7.251138500000001
  longitude: 112.73976975
  type: way
  amenity_type: place_of_worship
- id: 449637944
  name: Masjid Fadillah
  alt_name: []
  latitude: -7.2223593673981386
  longitude: 112.78204306979225
  type: way
  amenity_type: place_of_worship
- id: 449639957
  name: GBT Pniel
  alt_name: []
  latitude: -7.256333416840426
  longitude: 112.74151932382331
  type: way
  amenity_type: place_of_worship
- id: 449639958
  name: Gereja Kristus Radja Damai
  alt_name: []
  latitude: -7.259425268177904
  longitude: 112.74249936301923
  type: way
  amenity_type: place_of_worship
- id: 449639968
  name: Rumah Suci Budha
  alt_name: []
  latitude: -7.256942250000001
  longitude: 112.74166195000001
  type: way
  amenity_type: place_of_worship
- id: 449640192
  name: Gereja Masehi Advent Hari Ketujuh
  alt_name: []
  latitude: -7.257426574400033
  longitude: 112.73643524410225
  type: way
  amenity_type: place_of_worship
- id: 449647019
  name: GEREJA KRISTEN JAWI WETAN
  alt_name: []
  latitude: -7.293993749999998
  longitude: 112.75972235
  type: way
  amenity_type: place_of_worship
- id: 449647021
  name: Masjid Al Amin
  alt_name: []
  latitude: -7.294204224463944
  longitude: 112.75936564428518
  type: way
  amenity_type: place_of_worship
- id: 449647025
  name: Masjid Al Mudzakkir
  alt_name: []
  latitude: -7.292624432913319
  longitude: 112.75805103402672
  type: way
  amenity_type: place_of_worship
- id: 449647215
  name: Masjid Sabilul Muttaqin
  alt_name: []
  latitude: -7.241862150000001
  longitude: 112.75772434999999
  type: way
  amenity_type: place_of_worship
- id: 449648350
  name: Masjid Al Madinah
  alt_name: []
  latitude: -7.287357221140154
  longitude: 112.7564397748063
  type: way
  amenity_type: place_of_worship
- id: 449648353
  name: Masjid Al Istiqomah
  alt_name: []
  latitude: -7.291018612683045
  longitude: 112.75669058077206
  type: way
  amenity_type: place_of_worship
- id: 449649414
  name: Gereja Kristen Indonesia
  alt_name: []
  latitude: -7.288769529731317
  longitude: 112.75737202792412
  type: way
  amenity_type: place_of_worship
- id: 449649419
  name: Masjid Al Huda
  alt_name: []
  latitude: -7.285679329791113
  longitude: 112.75132036113378
  type: way
  amenity_type: place_of_worship
- id: 449649421
  name: Masjid Jami Al Jihad
  alt_name: []
  latitude: -7.28522945
  longitude: 112.7496886
  type: way
  amenity_type: place_of_worship
- id: 449650107
  name: Vihara Buddha Maitreya Sinar Purnama
  alt_name: []
  latitude: -7.248806378611378
  longitude: 112.74058346625968
  type: way
  amenity_type: place_of_worship
- id: 449650227
  name: Gereja Pantekosta Jemaat Immanuel
  alt_name: []
  latitude: -7.250340367307475
  longitude: 112.73892810211332
  type: way
  amenity_type: place_of_worship
- id: 449651026
  name: Masjid An Nur
  alt_name: []
  latitude: -7.286424177478364
  longitude: 112.750427505905
  type: way
  amenity_type: place_of_worship
- id: 449652656
  name: Masjid Shiroothol Mustaqim
  alt_name: []
  latitude: -7.221886739324
  longitude: 112.77466039029042
  type: way
  amenity_type: place_of_worship
- id: 449661027
  name: Masjid Al Mujahidun
  alt_name: []
  latitude: -7.242690399999999
  longitude: 112.7550562
  type: way
  amenity_type: place_of_worship
- id: 449662088
  name: Masjid Peneleh
  alt_name: []
  latitude: -7.253179429780613
  longitude: 112.73846592369469
  type: way
  amenity_type: place_of_worship
- id: 449662101
  name: Masjid Al Munir
  alt_name: []
  latitude: -7.252815917049253
  longitude: 112.73695953810854
  type: way
  amenity_type: place_of_worship
- id: 449676301
  name: Masjid Nurul Iman
  alt_name: []
  latitude: -7.256322899999999
  longitude: 112.74052180000001
  type: way
  amenity_type: place_of_worship
- id: 449676302
  name: Masjid Syuhada' Kebangsreng
  alt_name: []
  latitude: -7.25973185
  longitude: 112.73682440000002
  type: way
  amenity_type: place_of_worship
- id: 449678091
  name: Masjid Genteng
  alt_name: []
  latitude: -7.258342238624052
  longitude: 112.74022328093541
  type: way
  amenity_type: place_of_worship
- id: 449784755
  name: Gereja Gloria
  alt_name: []
  latitude: -7.238604000000001
  longitude: 112.75858815000001
  type: way
  amenity_type: place_of_worship
- id: 449792122
  name: Masjid An Nahar
  alt_name: []
  latitude: -7.223674450000001
  longitude: 112.77973005000001
  type: way
  amenity_type: place_of_worship
- id: 449792761
  name: Masjid Al Muchtar
  alt_name: []
  latitude: -7.22637892371707
  longitude: 112.77085399569036
  type: way
  amenity_type: place_of_worship
- id: 449792916
  name: Gereja Immanuel
  alt_name: []
  latitude: -7.2275345009791
  longitude: 112.77079536773911
  type: way
  amenity_type: place_of_worship
- id: 449798745
  name: Masjid As Salam
  alt_name: []
  latitude: -7.256864073150649
  longitude: 112.74969212978006
  type: way
  amenity_type: place_of_worship
- id: 449809892
  name: Masjid Raudhatul Falakh
  alt_name: []
  latitude: -7.23592735
  longitude: 112.75767990000001
  type: way
  amenity_type: place_of_worship
- id: 449815581
  name: Masjid Al Abror
  alt_name: []
  latitude: -7.235660984802266
  longitude: 112.752970746259
  type: way
  amenity_type: place_of_worship
- id: 449816081
  name: Masjid Al-Mustaqim
  alt_name: []
  latitude: -7.232409555746884
  longitude: 112.75004578843198
  type: way
  amenity_type: place_of_worship
- id: 449816111
  name: Masjid Darul Hijrah
  alt_name: []
  latitude: -7.232135850263485
  longitude: 112.75153512524588
  type: way
  amenity_type: place_of_worship
- id: 449816330
  name: Masjid Baiturrahman
  alt_name: []
  latitude: -7.2786742602566505
  longitude: 112.7505562591668
  type: way
  amenity_type: place_of_worship
- id: 449817016
  name: Masjid Nurul-Hidayah
  alt_name: []
  latitude: -7.228610743148835
  longitude: 112.77022328023835
  type: way
  amenity_type: place_of_worship
- id: 449818780
  name: Masjid Miftahus Sholeh
  alt_name: []
  latitude: -7.246223299999999
  longitude: 112.74419529999999
  type: way
  amenity_type: place_of_worship
- id: 449823955
  name: Masjid Nurul Huda Syafi'i
  alt_name: []
  latitude: -7.252353771504818
  longitude: 112.78843489404908
  type: way
  amenity_type: place_of_worship
- id: 449826528
  name: Masjid Wachid Hasjim
  alt_name: []
  latitude: -7.287918581573863
  longitude: 112.76493260870258
  type: way
  amenity_type: place_of_worship
- id: 449827453
  name: Klenteng Boen Bio
  alt_name: []
  latitude: -7.239486000000001
  longitude: 112.74798659999999
  type: way
  amenity_type: place_of_worship
- id: 449827933
  name: Masjid Al-Jihad
  alt_name: []
  latitude: -7.2296706948112295
  longitude: 112.75702087331129
  type: way
  amenity_type: place_of_worship
- id: 449829025
  name: Masjid Al Muhajirin
  alt_name: []
  latitude: -7.2578870614371676
  longitude: 112.74831911835756
  type: way
  amenity_type: place_of_worship
- id: 449830893
  name: Masjid Al Fadhilah
  alt_name: []
  latitude: -7.237153800000001
  longitude: 112.75049275
  type: way
  amenity_type: place_of_worship
- id: 449832074
  name: Masjid Darul Arqom
  alt_name: []
  latitude: -7.23109145
  longitude: 112.7502987
  type: way
  amenity_type: place_of_worship
- id: 449832254
  name: Masjid Raudlotus Sholihin
  alt_name: []
  latitude: -7.226337860086549
  longitude: 112.74664124863476
  type: way
  amenity_type: place_of_worship
- id: 449834811
  name: Masjid At Taqwa
  alt_name: []
  latitude: -7.289079877049373
  longitude: 112.80236896239201
  type: way
  amenity_type: place_of_worship
- id: 449835802
  name: Masjid Khalid Bin Walid
  alt_name: []
  latitude: -7.2766416
  longitude: 112.73076325000001
  type: way
  amenity_type: place_of_worship
- id: 449835806
  name: Masjid Nurul Hidayah
  alt_name: []
  latitude: -7.277435148186819
  longitude: 112.73612741478843
  type: way
  amenity_type: place_of_worship
- id: 449835808
  name: Masjid Nurul Huda
  alt_name: []
  latitude: -7.276057377505865
  longitude: 112.72905350280958
  type: way
  amenity_type: place_of_worship
- id: 449835897
  name: Masjid Muttaqien
  alt_name: []
  latitude: -7.28142439084132
  longitude: 112.75172176564665
  type: way
  amenity_type: place_of_worship
- id: 449838319
  name: Masjid Plampitan
  alt_name: []
  latitude: -7.255105025824324
  longitude: 112.73892141286002
  type: way
  amenity_type: place_of_worship
- id: 449843918
  name: Masjid Al Fattah
  alt_name: []
  latitude: -7.228753450000001
  longitude: 112.77266169999999
  type: way
  amenity_type: place_of_worship
- id: 450292959
  name: Masjid Al Furqon
  alt_name: []
  latitude: -7.224952521362861
  longitude: 112.77342479121201
  type: way
  amenity_type: place_of_worship
- id: 450293642
  name: Gereja Bethel Ternakel
  alt_name: []
  latitude: -7.23900181151144
  longitude: 112.77178776865007
  type: way
  amenity_type: place_of_worship
- id: 450295243
  name: Masjid Al-Hidayah
  alt_name: []
  latitude: -7.238785830540728
  longitude: 112.75051740318014
  type: way
  amenity_type: place_of_worship
- id: 450295250
  name: Gereja Shalom Immanuel
  alt_name: []
  latitude: -7.239589550000002
  longitude: 112.75080305
  type: way
  amenity_type: place_of_worship
- id: 450296153
  name: Masjid Nasrullah
  alt_name: []
  latitude: -7.223179599999999
  longitude: 112.76862765
  type: way
  amenity_type: place_of_worship
- id: 450307281
  name: Klenteng Ban Swie
  alt_name: []
  latitude: -7.239253788514472
  longitude: 112.74532042418663
  type: way
  amenity_type: place_of_worship
- id: 450315801
  name: Masjid Al-Muklisin
  alt_name: []
  latitude: -7.2991378000000005
  longitude: 112.80021775
  type: way
  amenity_type: place_of_worship
- id: 450316611
  name: Masjid Assalafiyah
  alt_name: []
  latitude: -7.319709226966379
  longitude: 112.77592759297022
  type: way
  amenity_type: place_of_worship
- id: 450316612
  name: Masjid Baitul Mu'minin
  alt_name: []
  latitude: -7.314571823454079
  longitude: 112.7754889368914
  type: way
  amenity_type: place_of_worship
- id: 450316613
  name: Masjid SMP Negeri 23 Surabaya
  alt_name: []
  latitude: -7.32034265
  longitude: 112.77776535
  type: way
  amenity_type: place_of_worship
- id: 450317748
  name: Masjid Al Hikmah
  alt_name: []
  latitude: -7.209901100000001
  longitude: 112.76369755
  type: way
  amenity_type: place_of_worship
- id: 450318402
  name: Masjid Al Ikhlas Dian Regency
  alt_name: []
  latitude: -7.288306023130399
  longitude: 112.81589768947788
  type: way
  amenity_type: place_of_worship
- id: 450318403
  name: Masjid Al Qomariyah
  alt_name: []
  latitude: -7.2981158299019615
  longitude: 112.80732645526471
  type: way
  amenity_type: place_of_worship
- id: 450318859
  name: Masjid Barkil Qiyarah
  alt_name: []
  latitude: -7.264230649999998
  longitude: 112.77418019999999
  type: way
  amenity_type: place_of_worship
- id: 450320092
  name: Masjid Umar
  alt_name: []
  latitude: -7.2311068999999994
  longitude: 112.7680057
  type: way
  amenity_type: place_of_worship
- id: 450507056
  name: Gereja Kristen Jawi Wetan Jemaat Mulyosari
  alt_name: []
  latitude: -7.2628608
  longitude: 112.79816270000002
  type: way
  amenity_type: place_of_worship
- id: 450507061
  name: Masjid Al Manar
  alt_name: []
  latitude: -7.263698199432393
  longitude: 112.7963349256966
  type: way
  amenity_type: place_of_worship
- id: 450507062
  name: Masjid Alazka
  alt_name: []
  latitude: -7.266973079547335
  longitude: 112.79890771793832
  type: way
  amenity_type: place_of_worship
- id: 450507063
  name: Masjid An Nur
  alt_name: []
  latitude: -7.273782684672869
  longitude: 112.80154288135425
  type: way
  amenity_type: place_of_worship
- id: 450507064
  name: Masjid Babussalam
  alt_name: []
  latitude: -7.2606500999999986
  longitude: 112.79641125
  type: way
  amenity_type: place_of_worship
- id: 450507065
  name: Masjid Baitul Makmur
  alt_name: []
  latitude: -7.258869799999999
  longitude: 112.79532999999999
  type: way
  amenity_type: place_of_worship
- id: 450509187
  name: Masjid Manarul Islam
  alt_name: []
  latitude: -7.283937
  longitude: 112.75225780000001
  type: way
  amenity_type: place_of_worship
- id: 450509409
  name: Masjid Daarus Salam
  alt_name: []
  latitude: -7.282166600000001
  longitude: 112.75511925
  type: way
  amenity_type: place_of_worship
- id: 450512928
  name: Hong Tiek Hian
  alt_name: []
  latitude: -7.237419771306006
  longitude: 112.74390505613329
  type: way
  amenity_type: place_of_worship
- id: 450513385
  name: Masjid Al Jihad
  alt_name: []
  latitude: -7.272120399999999
  longitude: 112.75307035
  type: way
  amenity_type: place_of_worship
- id: 450515834
  name: Masjid Riyadhus Sholihin
  alt_name: []
  latitude: -7.205323616215497
  longitude: 112.76351706741508
  type: way
  amenity_type: place_of_worship
- id: 450516333
  name: Masjid Al Ikhlas
  alt_name: []
  latitude: -7.228740942998454
  longitude: 112.76843357922115
  type: way
  amenity_type: place_of_worship
- id: 450517418
  name: Masjid Riyadhul Muslimin
  alt_name: []
  latitude: -7.212387134378209
  longitude: 112.76046897434384
  type: way
  amenity_type: place_of_worship
- id: 450519109
  name: Masjid Al Ikhlas
  alt_name: []
  latitude: -7.212171757886777
  longitude: 112.76329807327002
  type: way
  amenity_type: place_of_worship
- id: 450521468
  name: Masjid Al-Islam
  alt_name: []
  latitude: -7.234352104338876
  longitude: 112.76824247180656
  type: way
  amenity_type: place_of_worship
- id: 450532572
  name: Masjid Awwabin
  alt_name: []
  latitude: -7.235503454455701
  longitude: 112.74591222525056
  type: way
  amenity_type: place_of_worship
- id: 450536537
  name: Masjid Baitul Shiddiiq
  alt_name: []
  latitude: -7.25456145
  longitude: 112.76764744999998
  type: way
  amenity_type: place_of_worship
- id: 450536538
  name: Masjid Subulussalam
  alt_name: []
  latitude: -7.252572529780368
  longitude: 112.76551847859274
  type: way
  amenity_type: place_of_worship
- id: 450537995
  name: Masjid AL-HIDAYAH
  alt_name: []
  latitude: -7.279687000000001
  longitude: 112.76073925
  type: way
  amenity_type: place_of_worship
- id: 450540147
  name: Masjid Ar-Rahman
  alt_name: []
  latitude: -7.225384120935662
  longitude: 112.7525654914782
  type: way
  amenity_type: place_of_worship
- id: 450540252
  name: Masjid Sabillul Muhadjah
  alt_name: []
  latitude: -7.225621971211229
  longitude: 112.75423742217983
  type: way
  amenity_type: place_of_worship
- id: 450549360
  name: Masjid Al Mursyiden
  alt_name: []
  latitude: -7.300695369370351
  longitude: 112.77698474447335
  type: way
  amenity_type: place_of_worship
- id: 450553777
  name: Masjid Bustanul Mu'minun
  alt_name: []
  latitude: -7.224624850616059
  longitude: 112.75556986814549
  type: way
  amenity_type: place_of_worship
- id: 450553910
  name: Masjid At-Taqwa
  alt_name: []
  latitude: -7.22426849423855
  longitude: 112.75619490678302
  type: way
  amenity_type: place_of_worship
- id: 450554520
  name: Masjid Langgar Waqaf Sentono Botoputih
  alt_name: []
  latitude: -7.2326898851592505
  longitude: 112.74394962488435
  type: way
  amenity_type: place_of_worship
- id: 450554561
  name: Masjid Ampel Goebah
  alt_name: []
  latitude: -7.2317710324035716
  longitude: 112.74230831691055
  type: way
  amenity_type: place_of_worship
- id: 450689437
  name: Masjid Serang
  alt_name: []
  latitude: -7.233042181766125
  longitude: 112.74022114113404
  type: way
  amenity_type: place_of_worship
- id: 450692728
  name: Masjid Darussalam
  alt_name: []
  latitude: -7.222569392704931
  longitude: 112.75607867476486
  type: way
  amenity_type: place_of_worship
- id: 450693183
  name: Masjid Ar Raudhoh
  alt_name: []
  latitude: -7.338501320113414
  longitude: 112.71175428419949
  type: way
  amenity_type: place_of_worship
- id: 450693782
  name: Masjid Agung Sunan Ampel
  alt_name: []
  latitude: -7.229948038177379
  longitude: 112.74283701910255
  type: way
  amenity_type: place_of_worship
- id: 450696438
  name: Masjid Roudlotut Taaibin
  alt_name: []
  latitude: -7.250066800642504
  longitude: 112.74276706693492
  type: way
  amenity_type: place_of_worship
- id: 450697651
  name: Masjid Al Ikhsan
  alt_name: []
  latitude: -7.2211806250804855
  longitude: 112.75362765251097
  type: way
  amenity_type: place_of_worship
- id: 450698649
  name: Masjid Al Ihsan
  alt_name: []
  latitude: -7.26155345
  longitude: 112.78749730000001
  type: way
  amenity_type: place_of_worship
- id: 450698650
  name: Masjid Baiturrohim
  alt_name: []
  latitude: -7.261143197447403
  longitude: 112.78958869856767
  type: way
  amenity_type: place_of_worship
- id: 450698651
  name: Masjid Salman Al Farisi
  alt_name: []
  latitude: -7.260898370842276
  longitude: 112.78700844361566
  type: way
  amenity_type: place_of_worship
- id: 450698652
  name: Masjid Thariqul Jannah
  alt_name: []
  latitude: -7.260546791312454
  longitude: 112.79204062838642
  type: way
  amenity_type: place_of_worship
- id: 450713014
  name: Masjid Baitul Jabbar
  alt_name: []
  latitude: -7.3040875405764005
  longitude: 112.78003292883719
  type: way
  amenity_type: place_of_worship
- id: 450718101
  name: Gereja GPPS
  alt_name: []
  latitude: -7.241172100000001
  longitude: 112.73927225
  type: way
  amenity_type: place_of_worship
- id: 450726057
  name: GBI Jemaat Kasih
  alt_name: []
  latitude: -7.261830650000001
  longitude: 112.77670115000001
  type: way
  amenity_type: place_of_worship
- id: 450728817
  name: Masjid Abdussalam, Perum. Semampir Praja
  alt_name: []
  latitude: -7.307756649999998
  longitude: 112.78599205000002
  type: way
  amenity_type: place_of_worship
- id: 450772002
  name: Masjid Amanah
  alt_name: []
  latitude: -7.261254117876161
  longitude: 112.77463254086621
  type: way
  amenity_type: place_of_worship
- id: 450914320
  name: Gereja Kristen Reformasi Indonesia
  alt_name: []
  latitude: -7.29525265
  longitude: 112.7452905
  type: way
  amenity_type: place_of_worship
- id: 450914322
  name: Masjid Al Hidayah
  alt_name: []
  latitude: -7.293106900000001
  longitude: 112.74694150000002
  type: way
  amenity_type: place_of_worship
- id: 450914323
  name: Masjid Baitul Haq
  alt_name: []
  latitude: -7.295155028062488
  longitude: 112.75348941346253
  type: way
  amenity_type: place_of_worship
- id: 450914324
  name: Masjid Baitul Muttaqin
  alt_name: []
  latitude: -7.2973533999999995
  longitude: 112.75021469999999
  type: way
  amenity_type: place_of_worship
- id: 450914325
  name: Masjid Hidayatullah
  alt_name: []
  latitude: -7.295837495573325
  longitude: 112.75470092985618
  type: way
  amenity_type: place_of_worship
- id: 450914326
  name: Masjid Istiqbal
  alt_name: []
  latitude: -7.295604241009494
  longitude: 112.74652744225143
  type: way
  amenity_type: place_of_worship
- id: 450914327
  name: Masjid Nurul Islam
  alt_name: []
  latitude: -7.3027191
  longitude: 112.75067295
  type: way
  amenity_type: place_of_worship
- id: 450914328
  name: Masjid Raudlatul Falah
  alt_name: []
  latitude: -7.296389482236982
  longitude: 112.74422030422244
  type: way
  amenity_type: place_of_worship
- id: 450921067
  name: Masjid Farma Wartah
  alt_name: []
  latitude: -7.247771899999999
  longitude: 112.75060584999999
  type: way
  amenity_type: place_of_worship
- id: 450927052
  name: Gereja GPPS Tambak Madu
  alt_name: []
  latitude: -7.247162912651778
  longitude: 112.75505085222815
  type: way
  amenity_type: place_of_worship
- id: 450927053
  name: Gereja Pantekosta
  alt_name: []
  latitude: -7.24623605
  longitude: 112.75561770000002
  type: way
  amenity_type: place_of_worship
- id: 450927069
  name: Masjid Al Jihad
  alt_name: []
  latitude: -7.2440071210074475
  longitude: 112.75766649895198
  type: way
  amenity_type: place_of_worship
- id: 450927463
  name: Masjid Nurul Ihsan
  alt_name: []
  latitude: -7.242230611377973
  longitude: 112.7409034418202
  type: way
  amenity_type: place_of_worship
- id: 450930011
  name: Yayasan Rukun Sekawan
  alt_name: []
  latitude: -7.239544546209401
  longitude: 112.74091492848343
  type: way
  amenity_type: place_of_worship
- id: 450931432
  name: Gerja Kristen Abdiel Gloria
  alt_name: []
  latitude: -7.238518306533285
  longitude: 112.74279668773141
  type: way
  amenity_type: place_of_worship
- id: 450931543
  name: Gereja Kristus Tuhan
  alt_name: []
  latitude: -7.238687464603311
  longitude: 112.74281349697783
  type: way
  amenity_type: place_of_worship
- id: 450944795
  name: Masjid Assegaf
  alt_name: []
  latitude: -7.235671876181537
  longitude: 112.73976735423031
  type: way
  amenity_type: place_of_worship
- id: 450956794
  name: Masjid Sabilul Mutadin
  alt_name: []
  latitude: -7.2321600922684155
  longitude: 112.73316944143706
  type: way
  amenity_type: place_of_worship
- id: 450956811
  name: Masjid Makarimal Achlaq
  alt_name: []
  latitude: -7.233015746416279
  longitude: 112.73065797925842
  type: way
  amenity_type: place_of_worship
- id: 450958725
  name: Masjid Al-Amin
  alt_name: []
  latitude: -7.308590081384573
  longitude: 112.77983461794834
  type: way
  amenity_type: place_of_worship
- id: 450958727
  name: Masjid Sholihul Amin
  alt_name: []
  latitude: -7.30497405
  longitude: 112.7786167
  type: way
  amenity_type: place_of_worship
- id: 450968415
  name: Masjid Nashrulloh
  alt_name: []
  latitude: -7.3067133294466675
  longitude: 112.7987101082773
  type: way
  amenity_type: place_of_worship
- id: 450968416
  name: Masjid Nuhur Al Ikhlas
  alt_name: []
  latitude: -7.308636650000001
  longitude: 112.78270010000001
  type: way
  amenity_type: place_of_worship
- id: 450968466
  name: Masjid Al Ikhlas
  alt_name: []
  latitude: -7.21779363836347
  longitude: 112.76250197728956
  type: way
  amenity_type: place_of_worship
- id: 450973148
  name: Masjid Nur Ukhuwah Islamiyah
  alt_name: []
  latitude: -7.2107572499999995
  longitude: 112.73496554999998
  type: way
  amenity_type: place_of_worship
- id: 450988745
  name: Gereja Katolik Santo Yohanes Pemandi
  alt_name: []
  latitude: -7.30738939744282
  longitude: 112.7381862296012
  type: way
  amenity_type: place_of_worship
- id: 450988766
  name: Masjid Bahrul Ulum
  alt_name: []
  latitude: -7.304471213542755
  longitude: 112.74697260908755
  type: way
  amenity_type: place_of_worship
- id: 450988771
  name: Masjid Al Ikhlas
  alt_name: []
  latitude: -7.308233577787766
  longitude: 112.74088581330457
  type: way
  amenity_type: place_of_worship
- id: 450988772
  name: Masjid As Shihah
  alt_name: []
  latitude: -7.310703518353218
  longitude: 112.73840870156944
  type: way
  amenity_type: place_of_worship
- id: 450988773
  name: Masjid Hidayatullah
  alt_name: []
  latitude: -7.305321449999999
  longitude: 112.74176539999999
  type: way
  amenity_type: place_of_worship
- id: 450988774
  name: Masjid Nurul Huda
  alt_name: []
  latitude: -7.304498466239095
  longitude: 112.7523201712045
  type: way
  amenity_type: place_of_worship
- id: 450988775
  name: Masjid Sabilillah
  alt_name: []
  latitude: -7.303492583239011
  longitude: 112.73737439668682
  type: way
  amenity_type: place_of_worship
- id: 451005786
  name: Gereja Pantekosta Indonesia
  alt_name: []
  latitude: -7.233241549999999
  longitude: 112.73010054999999
  type: way
  amenity_type: place_of_worship
- id: 451090212
  name: Masjid Miftahul Jannah
  alt_name: []
  latitude: -7.229268082468649
  longitude: 112.75386984381817
  type: way
  amenity_type: place_of_worship
- id: 451271269
  name: Gereja Katolik Ratu Pencintai Damai
  alt_name: []
  latitude: -7.232540714802299
  longitude: 112.76521609563092
  type: way
  amenity_type: place_of_worship
- id: 451271283
  name: Masjid Al Muttaqin
  alt_name: []
  latitude: -7.227622080107831
  longitude: 112.7814082066808
  type: way
  amenity_type: place_of_worship
- id: 451271288
  name: Masjid As Sidiq
  alt_name: []
  latitude: -7.22953780704585
  longitude: 112.77458744836456
  type: way
  amenity_type: place_of_worship
- id: 451275118
  name: Masjid Al Amanah
  alt_name: []
  latitude: -7.229020319355896
  longitude: 112.77602288465658
  type: way
  amenity_type: place_of_worship
- id: 451275119
  name: Masjid Attinah
  alt_name: []
  latitude: -7.219948026376863
  longitude: 112.77281441285055
  type: way
  amenity_type: place_of_worship
- id: 451275120
  name: Masjid Subulussalam
  alt_name: []
  latitude: -7.2315626
  longitude: 112.7649167
  type: way
  amenity_type: place_of_worship
- id: 451275448
  name: Masjid Ittihadul Muslimin
  alt_name: []
  latitude: -7.215070397750014
  longitude: 112.7593909485965
  type: way
  amenity_type: place_of_worship
- id: 451275586
  name: Masjid Ukhuwah
  alt_name: []
  latitude: -7.223095934133517
  longitude: 112.7517322311401
  type: way
  amenity_type: place_of_worship
- id: 451283933
  name: Masjid At Taqwa
  alt_name: []
  latitude: -7.231832601058412
  longitude: 112.76532258882926
  type: way
  amenity_type: place_of_worship
- id: 451283952
  name: Masjid Ar Rahmah
  alt_name: []
  latitude: -7.223485201922655
  longitude: 112.7828507110165
  type: way
  amenity_type: place_of_worship
- id: 451286554
  name: G.B.T Kristen Penebus
  alt_name: []
  latitude: -7.283368929969474
  longitude: 112.73948982865046
  type: way
  amenity_type: place_of_worship
- id: 451286561
  name: Gereja Utusan Pantekosta di Indonesia
  alt_name: []
  latitude: -7.275210109993792
  longitude: 112.73160452103475
  type: way
  amenity_type: place_of_worship
- id: 451286571
  name: Juncin Kiung
  alt_name: []
  latitude: -7.279137250000001
  longitude: 112.73209180000002
  type: way
  amenity_type: place_of_worship
- id: 451286574
  name: Masjid Al-Hikmah
  alt_name: []
  latitude: -7.285513599999999
  longitude: 112.73121574999999
  type: way
  amenity_type: place_of_worship
- id: 451286575
  name: Masjid Al-Ma'mur
  alt_name: []
  latitude: -7.277664279937507
  longitude: 112.73080044550484
  type: way
  amenity_type: place_of_worship
- id: 451286576
  name: Masjid Sabilal Muhtadin
  alt_name: []
  latitude: -7.27725496205012
  longitude: 112.73414511883621
  type: way
  amenity_type: place_of_worship
- id: 451286580
  name: T.I.T.D. HONG SAN KO TEE
  alt_name: []
  latitude: -7.27803556953246
  longitude: 112.73927009027003
  type: way
  amenity_type: place_of_worship
- id: 451291151
  name: GKJW Jemaat Jambangan
  alt_name: []
  latitude: -7.317401049999999
  longitude: 112.71297785
  type: way
  amenity_type: place_of_worship
- id: 451291280
  name: Masjid Amir Mukti
  alt_name: []
  latitude: -7.3238347918941935
  longitude: 112.71230992715815
  type: way
  amenity_type: place_of_worship
- id: 451291281
  name: Masjid An Nur
  alt_name: []
  latitude: -7.323395655911538
  longitude: 112.7137102219118
  type: way
  amenity_type: place_of_worship
- id: 451292340
  name: Musholla RS. Islam Surabaya
  alt_name: []
  latitude: -7.306540896233964
  longitude: 112.73488508211956
  type: way
  amenity_type: place_of_worship
- id: 451293430
  name: Masjid Jami' Taqwiyatul Muslimin
  alt_name: []
  latitude: -7.22052876233742
  longitude: 112.75225138022871
  type: way
  amenity_type: place_of_worship
- id: 451294359
  name: Masjid Nurul Jannah
  alt_name: []
  latitude: -7.21405715
  longitude: 112.73617360000001
  type: way
  amenity_type: place_of_worship
- id: 451295376
  name: Gereja Bethel Indonesia Anugerah Sulung
  alt_name: []
  latitude: -7.286861017209764
  longitude: 112.74078113321048
  type: way
  amenity_type: place_of_worship
- id: 451295389
  name: Masjid Langgal Ath Toyyibah
  alt_name: []
  latitude: -7.2831021314892155
  longitude: 112.74472850571712
  type: way
  amenity_type: place_of_worship
- id: 451300766
  name: Masjid Darus Salam
  alt_name: []
  latitude: -7.274358254717973
  longitude: 112.73191377169917
  type: way
  amenity_type: place_of_worship
- id: 451301884
  name: Masjid Roudhotul Jannah
  alt_name: []
  latitude: -7.331657730703108
  longitude: 112.74844962263474
  type: way
  amenity_type: place_of_worship
- id: 451303179
  name: Masjid Al Hidayah
  alt_name: []
  latitude: -7.337331950000001
  longitude: 112.70845040000003
  type: way
  amenity_type: place_of_worship
- id: 451303180
  name: Masjid Darussalam
  alt_name: []
  latitude: -7.336139006016754
  longitude: 112.70560521909731
  type: way
  amenity_type: place_of_worship
- id: 451304617
  name: Masjid Al-Furqan
  alt_name: []
  latitude: -7.333396588642097
  longitude: 112.74872262714518
  type: way
  amenity_type: place_of_worship
- id: 451307800
  name: Masjid Mujahidin
  alt_name: []
  latitude: -7.25775983166479
  longitude: 112.64640090511182
  type: way
  amenity_type: place_of_worship
- id: 451310339
  name: Gereja Tota Cristhine Per Mariam
  alt_name: []
  latitude: -7.237514962107877
  longitude: 112.73253656928844
  type: way
  amenity_type: place_of_worship
- id: 451486231
  name: Masjid Miftahul Ittihad
  alt_name: []
  latitude: -7.235739568683946
  longitude: 112.72393210734495
  type: way
  amenity_type: place_of_worship
- id: 451487299
  name: Masjid Al Amin
  alt_name: []
  latitude: -7.29356235
  longitude: 112.70576969999999
  type: way
  amenity_type: place_of_worship
- id: 451489001
  name: Gereja Yesus Kristus
  alt_name: []
  latitude: -7.291172413883122
  longitude: 112.70098233140486
  type: way
  amenity_type: place_of_worship
- id: 451490312
  name: Masjid Ta'miriyah
  alt_name: []
  latitude: -7.242514323658149
  longitude: 112.73485949511654
  type: way
  amenity_type: place_of_worship
- id: 451492061
  name: Masjid Baitul Makmur
  alt_name: []
  latitude: -7.236218199999999
  longitude: 112.7314505
  type: way
  amenity_type: place_of_worship
- id: 451492221
  name: Masjid Nurul Iman
  alt_name: []
  latitude: -7.2462048999999995
  longitude: 112.63708319999999
  type: way
  amenity_type: place_of_worship
- id: 451494168
  name: Masjid Al Hikmah
  alt_name: []
  latitude: -7.263445100000001
  longitude: 112.66071824999999
  type: way
  amenity_type: place_of_worship
- id: 451494344
  name: Masjid Al Islam
  alt_name: []
  latitude: -7.264264178621843
  longitude: 112.66058670795296
  type: way
  amenity_type: place_of_worship
- id: 451495265
  name: Masjid Miftachul Jannah
  alt_name: []
  latitude: -7.221926980605437
  longitude: 112.59304368867934
  type: way
  amenity_type: place_of_worship
- id: 451495329
  name: Gereja Protestan Genta Kasih
  alt_name: []
  latitude: -7.324099563576804
  longitude: 112.77481522408637
  type: way
  amenity_type: place_of_worship
- id: 451500395
  name: Masjid Romokalisari
  alt_name: []
  latitude: -7.197843204277807
  longitude: 112.64689791786193
  type: way
  amenity_type: place_of_worship
- id: 451500612
  name: Masjid Baiturrahman
  alt_name: []
  latitude: -7.279788249999999
  longitude: 112.7045756
  type: way
  amenity_type: place_of_worship
- id: 451500920
  name: Masjid Al Mujahirin
  alt_name: []
  latitude: -7.22365995
  longitude: 112.59775375
  type: way
  amenity_type: place_of_worship
- id: 451501915
  name: GPDL Haleluya Rungkut
  alt_name: []
  latitude: -7.333128750000001
  longitude: 112.77551005
  type: way
  amenity_type: place_of_worship
- id: 451502285
  name: Gereja Kristen Perjanjian Baru
  alt_name: []
  latitude: -7.289159165187273
  longitude: 112.69762438396833
  type: way
  amenity_type: place_of_worship
- id: 451502367
  name: GKPB Masa Depan Cerah Putat Gede
  alt_name: []
  latitude: -7.290875334894243
  longitude: 112.69739476265977
  type: way
  amenity_type: place_of_worship
- id: 451503718
  name: G.B.T Kristus Pengasih Kutisari Indah
  alt_name: []
  latitude: -7.33848115
  longitude: 112.7533286
  type: way
  amenity_type: place_of_worship
- id: 451504143
  name: Masjid Al Islamiyah
  alt_name: []
  latitude: -7.223865587799594
  longitude: 112.59975577612013
  type: way
  amenity_type: place_of_worship
- id: 451504897
  name: Gereja Kristen Indonesia
  alt_name: []
  latitude: -7.337519349756549
  longitude: 112.75381313588035
  type: way
  amenity_type: place_of_worship
- id: 451506648
  name: Masjid Nur Rohmah
  alt_name: []
  latitude: -7.235280343971749
  longitude: 112.7288368291644
  type: way
  amenity_type: place_of_worship
- id: 451509761
  name: Masjid Baitul Ma'mur
  alt_name: []
  latitude: -7.336889249999999
  longitude: 112.80358339999998
  type: way
  amenity_type: place_of_worship
- id: 451511424
  name: Masjid Baiturrohman
  alt_name: []
  latitude: -7.226325429630276
  longitude: 112.60074117232655
  type: way
  amenity_type: place_of_worship
- id: 451512332
  name: Masjid Rahmat
  alt_name: []
  latitude: -7.28195425
  longitude: 112.72963380000002
  type: way
  amenity_type: place_of_worship
- id: 451513973
  name: Masjid Al-Hikmah
  alt_name: []
  latitude: -7.2611495166037985
  longitude: 112.69079486676847
  type: way
  amenity_type: place_of_worship
- id: 451515084
  name: Masjid baiturrahman
  alt_name: []
  latitude: -7.309911388801759
  longitude: 112.75651303415485
  type: way
  amenity_type: place_of_worship
- id: 451516161
  name: Masjid At Taubah
  alt_name: []
  latitude: -7.254982150000001
  longitude: 112.73061709999999
  type: way
  amenity_type: place_of_worship
- id: 451520331
  name: Masjid Baitut Taqwa
  alt_name: []
  latitude: -7.3360305499999985
  longitude: 112.74723624999997
  type: way
  amenity_type: place_of_worship
- id: 451523303
  name: Vihara Buddhayana
  alt_name: []
  latitude: -7.286620149542632
  longitude: 112.69816585226667
  type: way
  amenity_type: place_of_worship
- id: 451523713
  name: Masjid Al Maghfirah
  alt_name: []
  latitude: -7.32738205
  longitude: 112.77344405
  type: way
  amenity_type: place_of_worship
- id: 451524537
  name: Gereja Yesus Sejati
  alt_name: []
  latitude: -7.256331570393212
  longitude: 112.72646061351166
  type: way
  amenity_type: place_of_worship
- id: 451524569
  name: Gereja Albert
  alt_name: []
  latitude: -7.256398206472563
  longitude: 112.72726597342748
  type: way
  amenity_type: place_of_worship
- id: 451524714
  name: Masjid Ya'qub
  alt_name: []
  latitude: -7.255811558072751
  longitude: 112.72535468009237
  type: way
  amenity_type: place_of_worship
- id: 451527387
  name: Masjid Baitus Syukur
  alt_name: []
  latitude: -7.214287118160292
  longitude: 112.60613679606557
  type: way
  amenity_type: place_of_worship
- id: 451527968
  name: Masjid Nurul Ihsan
  alt_name: []
  latitude: -7.214338931136812
  longitude: 112.60887380664073
  type: way
  amenity_type: place_of_worship
- id: 451533221
  name: Masjid Al Huda
  alt_name: []
  latitude: -7.312533718677494
  longitude: 112.71622630292404
  type: way
  amenity_type: place_of_worship
- id: 451533230
  name: Masjid At Taqwa
  alt_name: []
  latitude: -7.311262400000001
  longitude: 112.72088345
  type: way
  amenity_type: place_of_worship
- id: 451533233
  name: Masjid Baitul Haq
  alt_name: []
  latitude: -7.319042153754489
  longitude: 112.72360462105372
  type: way
  amenity_type: place_of_worship
- id: 451533234
  name: Masjid Jami' Al Hasan
  alt_name: []
  latitude: -7.309593392226702
  longitude: 112.71672983023075
  type: way
  amenity_type: place_of_worship
- id: 451533235
  name: Masjid Nurul Huda
  alt_name: []
  latitude: -7.313288700000001
  longitude: 112.71197745
  type: way
  amenity_type: place_of_worship
- id: 451533784
  name: Musholla Ar Rifa'i
  alt_name: []
  latitude: -7.325765156280053
  longitude: 112.79683046943147
  type: way
  amenity_type: place_of_worship
- id: 451533789
  name: Masjid Al Imaduddin
  alt_name: []
  latitude: -7.3264020212375245
  longitude: 112.7985212055408
  type: way
  amenity_type: place_of_worship
- id: 451534867
  name: Masjid Darul Arqom
  alt_name: []
  latitude: -7.2357989628384525
  longitude: 112.61524572489043
  type: way
  amenity_type: place_of_worship
- id: 451535770
  name: Masjid Hidayatullah
  alt_name: []
  latitude: -7.260233779389874
  longitude: 112.67286656440434
  type: way
  amenity_type: place_of_worship
- id: 451536977
  name: Musholla
  alt_name: []
  latitude: -7.2745549906334706
  longitude: 112.7240203806124
  type: way
  amenity_type: place_of_worship
- id: 451541848
  name: Masjid As Sallam
  alt_name: []
  latitude: -7.323041850000001
  longitude: 112.71970979999999
  type: way
  amenity_type: place_of_worship
- id: 451550266
  name: Gereja Kristen Jawi Wetan
  alt_name: []
  latitude: -7.324044158558532
  longitude: 112.77462137956785
  type: way
  amenity_type: place_of_worship
- id: 451551528
  name: Masjid Al Ali
  alt_name: []
  latitude: -7.32115405
  longitude: 112.76889025000001
  type: way
  amenity_type: place_of_worship
- id: 451573279
  name: Masjid As Syifa'
  alt_name: []
  latitude: -7.240623466021159
  longitude: 112.73019177271405
  type: way
  amenity_type: place_of_worship
- id: 451581767
  name: Masjid Al Mukhlis
  alt_name: []
  latitude: -7.2384866036860345
  longitude: 112.729315470581
  type: way
  amenity_type: place_of_worship
- id: 451586283
  name: Gereja Bethel Injil Sepenuh 'Yerusalem Baru'
  alt_name: []
  latitude: -7.2714270424104575
  longitude: 112.73219622430618
  type: way
  amenity_type: place_of_worship
- id: 451586284
  name: Masjid Al ikhlas
  alt_name: []
  latitude: -7.271374710344071
  longitude: 112.73088681902918
  type: way
  amenity_type: place_of_worship
- id: 451586285
  name: Masjid Waqaf Maqbul
  alt_name: []
  latitude: -7.272569742482415
  longitude: 112.73486487730803
  type: way
  amenity_type: place_of_worship
- id: 451586295
  name: Masjid Nurul Falah
  alt_name: []
  latitude: -7.271680194158986
  longitude: 112.72956533146832
  type: way
  amenity_type: place_of_worship
- id: 451589323
  name: Masjid Al Hidayah
  alt_name: []
  latitude: -7.322640207933155
  longitude: 112.77342423549915
  type: way
  amenity_type: place_of_worship
- id: 451589962
  name: Gereja Kristen Kalam Kudus
  alt_name: []
  latitude: -7.243054483363963
  longitude: 112.73217999624546
  type: way
  amenity_type: place_of_worship
- id: 451592007
  name: Masjid Baitul Jannah
  alt_name: []
  latitude: -7.313442700000002
  longitude: 112.77847885000001
  type: way
  amenity_type: place_of_worship
- id: 451592008
  name: Masjid Baiturrahim
  alt_name: []
  latitude: -7.3192146
  longitude: 112.77936725
  type: way
  amenity_type: place_of_worship
- id: 451592425
  name: Masjid Al-Hidayah
  alt_name: []
  latitude: -7.339285747951101
  longitude: 112.75142885029723
  type: way
  amenity_type: place_of_worship
- id: 451598731
  name: Masjid Baitul Huda
  alt_name: []
  latitude: -7.243973
  longitude: 112.7298471
  type: way
  amenity_type: place_of_worship
- id: 451599922
  name: Masjid Baiturrozaq
  alt_name: []
  latitude: -7.332317567384583
  longitude: 112.75716730774664
  type: way
  amenity_type: place_of_worship
- id: 451622023
  name: Gereja Protestan (GPIB) Sejahtera
  alt_name: []
  latitude: -7.329840854969183
  longitude: 112.7478605228492
  type: way
  amenity_type: place_of_worship
- id: 451645229
  name: Gereja Kristen Abdiel Gloria Kota Satelit
  alt_name: []
  latitude: -7.28599379239498
  longitude: 112.70079784722729
  type: way
  amenity_type: place_of_worship
- id: 451649261
  name: Gereja GPIB.PNIEL
  alt_name: []
  latitude: -7.234184563540892
  longitude: 112.73127213086681
  type: way
  amenity_type: place_of_worship
- id: 451656374
  name: Masjid Jamin Kibar
  alt_name: []
  latitude: -7.340595550000001
  longitude: 112.74220965
  type: way
  amenity_type: place_of_worship
- id: 451657325
  name: Masjid Miftahul Jannah
  alt_name: []
  latitude: -7.2340644248876576
  longitude: 112.72695363933211
  type: way
  amenity_type: place_of_worship
- id: 451658475
  name: Masjid Al Ikhlas
  alt_name: []
  latitude: -7.316745249999999
  longitude: 112.78975444999999
  type: way
  amenity_type: place_of_worship
- id: 451659231
  name: Masjid Khoirul Bariyah
  alt_name: []
  latitude: -7.233443921373475
  longitude: 112.72392989249947
  type: way
  amenity_type: place_of_worship
- id: 451660160
  name: Masjid Jendral Sudirman
  alt_name: []
  latitude: -7.318972824883111
  longitude: 112.78710065983923
  type: way
  amenity_type: place_of_worship
- id: 451660762
  name: Masjid Baitul Mukmin
  alt_name: []
  latitude: -7.278228468850983
  longitude: 112.71070933869919
  type: way
  amenity_type: place_of_worship
- id: 451660869
  name: Masjid Al Muttaqin
  alt_name: []
  latitude: -7.2320977499999985
  longitude: 112.72045795
  type: way
  amenity_type: place_of_worship
- id: 451660919
  name: Masjid Baitut Taufik
  alt_name: []
  latitude: -7.2321110722200075
  longitude: 112.72211550948259
  type: way
  amenity_type: place_of_worship
- id: 451661028
  name: Masjid Ar Ridwan
  alt_name: []
  latitude: -7.25178845
  longitude: 112.72406405000001
  type: way
  amenity_type: place_of_worship
- id: 451661748
  name: Mahavihara dan Pusdiklat Buddha Maitreya
  alt_name: []
  latitude: -7.276409198918438
  longitude: 112.71044761213643
  type: way
  amenity_type: place_of_worship
- id: 451661886
  name: Masjid Al Hidayah
  alt_name: []
  latitude: -7.239384950000001
  longitude: 112.72434559999999
  type: way
  amenity_type: place_of_worship
- id: 451661932
  name: Masjid Nurul Hidayah
  alt_name: []
  latitude: -7.238870878073508
  longitude: 112.72288195887046
  type: way
  amenity_type: place_of_worship
- id: 451661977
  name: Masjid Al Hilal
  alt_name: []
  latitude: -7.237362219180585
  longitude: 112.72243314419165
  type: way
  amenity_type: place_of_worship
- id: 451662912
  name: Masjid Baitul Huda
  alt_name: []
  latitude: -7.253097579903938
  longitude: 112.63857075596744
  type: way
  amenity_type: place_of_worship
- id: 451663662
  name: Masjid Nurul Iman
  alt_name: []
  latitude: -7.319217828766582
  longitude: 112.78486172568552
  type: way
  amenity_type: place_of_worship
- id: 451664122
  name: GPDI Bukit Mulia
  alt_name: []
  latitude: -7.2638269305166725
  longitude: 112.67424153673502
  type: way
  amenity_type: place_of_worship
- id: 451664142
  name: Masjid Al Hidayah
  alt_name: []
  latitude: -7.263815427067676
  longitude: 112.6751447891442
  type: way
  amenity_type: place_of_worship
- id: 451664271
  name: Masjid Darussalam
  alt_name: []
  latitude: -7.282930877211813
  longitude: 112.70899921344977
  type: way
  amenity_type: place_of_worship
- id: 451664895
  name: Masjid Al Haq
  alt_name: []
  latitude: -7.3331319
  longitude: 112.7714979
  type: way
  amenity_type: place_of_worship
- id: 451665261
  name: Masjid Al Mufidah
  alt_name: []
  latitude: -7.308268146970306
  longitude: 112.72624108199138
  type: way
  amenity_type: place_of_worship
- id: 451667004
  name: Gereja Masehi Advent Hari Ketujuh Dukuh Kupang
  alt_name: []
  latitude: -7.283101633963366
  longitude: 112.70983353116185
  type: way
  amenity_type: place_of_worship
- id: 451669258
  name: Masjid SMP Negeri 14 Surabaya
  alt_name: []
  latitude: -7.237843071193186
  longitude: 112.60884100741534
  type: way
  amenity_type: place_of_worship
- id: 451670023
  name: Masjid At Taqwa
  alt_name: []
  latitude: -7.319549950000001
  longitude: 112.78240995
  type: way
  amenity_type: place_of_worship
- id: 451670553
  name: Masjid Nurul Muhibbin
  alt_name: []
  latitude: -7.27992565
  longitude: 112.6551836
  type: way
  amenity_type: place_of_worship
- id: 451671151
  name: Gereja Katolik St. Aloysius Gonzaga
  alt_name: []
  latitude: -7.2671717744825255
  longitude: 112.69205941219501
  type: way
  amenity_type: place_of_worship
- id: 451672203
  name: Masjid Baiturrahman
  alt_name: []
  latitude: -7.288602974346521
  longitude: 112.72918520447992
  type: way
  amenity_type: place_of_worship
- id: 451672332
  name: Masjid Al Hijriyah
  alt_name: []
  latitude: -7.286269004849271
  longitude: 112.72959612127987
  type: way
  amenity_type: place_of_worship
- id: 451672377
  name: Gereja Katolik Santo Mikael
  alt_name: []
  latitude: -7.224390058144835
  longitude: 112.72751372558827
  type: way
  amenity_type: place_of_worship
- id: 451672382
  name: Gereja Kristen Jawi Wetan
  alt_name: []
  latitude: -7.2236366499999995
  longitude: 112.7265048
  type: way
  amenity_type: place_of_worship
- id: 451672880
  name: Gereja Kristen Indonesia Darmo Satelit
  alt_name: []
  latitude: -7.283946117692025
  longitude: 112.70080862577996
  type: way
  amenity_type: place_of_worship
- id: 451673089
  name: Masjid Al Mu'awanah
  alt_name: []
  latitude: -7.249712148872401
  longitude: 112.64112074354924
  type: way
  amenity_type: place_of_worship
- id: 451673729
