objects:
- id: 35603368
  name: Masjid Nasional Al-Akbar
  alt_name: []
  latitude: -7.336526918907449
  longitude: 112.7152347575886
  type: way
  amenity_type: place_of_worship
- id: 119293110
  name: Mushola Vokasi
  alt_name: []
  latitude: -7.278581955665586
  longitude: 112.7924891364065
  type: way
  amenity_type: place_of_worship
- id: 119487711
  name: Masjid Manarul Ilmi
  alt_name: []
  latitude: -7.283463752280794
  longitude: 112.82166810459681
  type: way
  amenity_type: place_of_worship
- id: 119490387
  name: Musholla
  alt_name: []
  latitude: -7.27639015
  longitude: 112.79298455
  type: way
  amenity_type: place_of_worship
- id: 119491674
  name: Masjid Jami Besar Al-Ibrahim
  alt_name: []
  latitude: -7.28124879314067
  longitude: 112.7868746171864
  type: way
  amenity_type: place_of_worship
- id: 119759492
  name: Masjid Al Mabruk
  alt_name: []
  latitude: -7.246828137068062
  longitude: 112.82438288783106
  type: way
  amenity_type: place_of_worship
- id: 119770582
  name: Masjid Darul Falah
  alt_name: []
  latitude: -7.3389638013303164
  longitude: 112.76778680300448
  type: way
  amenity_type: place_of_worship
- id: 121270332
  name: Masjid Ahmad Yani
  alt_name: []
  latitude: -7.276153276585486
  longitude: 112.79258837979407
  type: way
  amenity_type: place_of_worship
- id: 121270333
  name: Masjid Jami' Nurul Mu'minin
  alt_name: []
  latitude: -7.273548790828422
  longitude: 112.80045834069465
  type: way
  amenity_type: place_of_worship
- id: 121270334
  name: Masjid Baitul Muttaqin
  alt_name: []
  latitude: -7.289171722130044
  longitude: 112.79959748335308
  type: way
  amenity_type: place_of_worship
- id: 122096783
  name: Masjid Nurul Iman
  alt_name: []
  latitude: -7.314765563564025
  longitude: 112.74842294214888
  type: way
  amenity_type: place_of_worship
- id: 123826609
  name: Gereja Kristus Tuhan Hosana Bumi Permai
  alt_name: []
  latitude: -7.2963398743077645
  longitude: 112.78389382506371
  type: way
  amenity_type: place_of_worship
- id: 137771017
  name: Masjid At-Taqwa
  alt_name: []
  latitude: -7.579594974013769
  longitude: 112.61873221990516
  type: way
  amenity_type: place_of_worship
- id: 155884029
  name: Gereja Sidang Jemaat Allah
  alt_name: []
  latitude: -7.256179950000001
  longitude: 112.74520355
  type: way
  amenity_type: place_of_worship
- id: 155884099
  name: Gereja BPIB Maranatha
  alt_name: []
  latitude: -7.260841150000002
  longitude: 112.74617775
  type: way
  amenity_type: place_of_worship
- id: 184885897
  name: Gereja Kristus Terang Dunia
  alt_name: []
  latitude: -20518873.333592486
  longitude: -8119878.997775619
  type: way
  amenity_type: place_of_worship
- id: 184885922
  name: Gereja Baptis Indonesia Imanuel
  alt_name: []
  latitude: -7.258058950000001
  longitude: 112.7457107
  type: way
  amenity_type: place_of_worship
- id: 185022354
  name: Masjid As Sayyid Abbas Almaliky
  alt_name: []
  latitude: -7.272395243441031
  longitude: 112.74109324064236
  type: way
  amenity_type: place_of_worship
- id: 185055135
  name: Gereja Injili Indonesia
  alt_name: []
  latitude: -7.267644792940733
  longitude: 112.74534954236401
  type: way
  amenity_type: place_of_worship
- id: 185056780
  name: Gereja Kristen Abdiel Elyon
  alt_name: []
  latitude: -7.271145384051227
  longitude: 112.73566882654596
  type: way
  amenity_type: place_of_worship
- id: 212951960
  name: Masjid Baitul Mujahidin
  alt_name: []
  latitude: -428399.6942821736
  longitude: -123281.62384471655
  type: way
  amenity_type: place_of_worship
- id: 215152118
  name: Masjid Al Falah
  alt_name: []
  latitude: -13202752.196450839
  longitude: -5344034.189143231
  type: way
  amenity_type: place_of_worship
- id: 215152119
  name: Masjid Baitul Ilmin
  alt_name: []
  latitude: -7.149040528831788
  longitude: 112.75886568293218
  type: way
  amenity_type: place_of_worship
- id: 233536877
  name: Masjid Baitussalam
  alt_name: []
  latitude: -7.3170940530106865
  longitude: 112.72183751908302
  type: way
  amenity_type: place_of_worship
- id: 295270094
  name: Masjid An Nur
  alt_name: []
  latitude: -7.310141146457777
  longitude: 112.74801667464673
  type: way
  amenity_type: place_of_worship
- id: 307159363
  name: Masjid As Sa'adah
  alt_name: []
  latitude: -7.289616554550168
  longitude: 112.79690204356933
  type: way
  amenity_type: place_of_worship
- id: 307159400
  name: Musholla Salman
  alt_name: []
  latitude: -7.288470010097949
  longitude: 112.79781045048377
  type: way
  amenity_type: place_of_worship
- id: 307258696
  name: Masjid Al Madani
  alt_name: []
  latitude: -7.120957847847609
  longitude: 112.87196543372369
  type: way
  amenity_type: place_of_worship
- id: 307261122
  name: Masjid FKH
  alt_name: []
  latitude: -7.272474505043925
  longitude: 112.78665314238518
  type: way
  amenity_type: place_of_worship
- id: 307349688
  name: Masjid As-Sakinah
  alt_name: []
  latitude: -7.270331164300737
  longitude: 112.75989711505957
  type: way
  amenity_type: place_of_worship
- id: 307387919
  name: Masjid Al Muttaqien
  alt_name: []
  latitude: -7.246442656051571
  longitude: 112.78865192791216
  type: way
  amenity_type: place_of_worship
- id: 307387951
  name: Gereja Protestan Jemaat Nazareth
  alt_name: []
  latitude: -391363460.9956549
  longitude: -11761373.199255122
  type: way
  amenity_type: place_of_worship
- id: 307388026
  name: Masjid An-Nur
  alt_name: []
  latitude: -7.276174701985633
  longitude: 112.78924561257091
  type: way
  amenity_type: place_of_worship
- id: 308348739
  name: Masjid Haqqul Yaqien
  alt_name: []
  latitude: -7.538584717308963
  longitude: 112.6648959345969
  type: way
  amenity_type: place_of_worship
- id: 311268597
  name: Masjid KONI
  alt_name: []
  latitude: -7.280872239761123
  longitude: 112.78055451534934
  type: way
  amenity_type: place_of_worship
- id: 311395471
  name: Masjid Al Maghfirah
  alt_name: []
  latitude: 994136431733.3334
  longitude: 9774312618.666666
  type: way
  amenity_type: place_of_worship
- id: 311407629
  name: Masjid Istiqomah
  alt_name: []
  latitude: -7.329578077134123
  longitude: 112.7921268527364
  type: way
  amenity_type: place_of_worship
- id: 315731313
  name: Darul Fikri
  alt_name: []
  latitude: -7.2715505
  longitude: 112.75915420000001
  type: way
  amenity_type: place_of_worship
- id: 315762840
  name: Masjid Al Ittihaad
  alt_name: []
  latitude: -7.26695325
  longitude: 112.75303919999998
  type: way
  amenity_type: place_of_worship
- id: 319645338
  name: Masjid Baitul Falah
  alt_name: []
  latitude: -7.291173268481454
  longitude: 112.75533259631189
  type: way
  amenity_type: place_of_worship
- id: 319649040
  name: Masjid Kautsar Ikhlas
  alt_name: []
  latitude: -7.293037634653842
  longitude: 112.75070383939166
  type: way
  amenity_type: place_of_worship
- id: 319670135
  name: Masjid Baabusallam
  alt_name: []
  latitude: -7.274309093679386
  longitude: 112.75447338609204
  type: way
  amenity_type: place_of_worship
- id: 319673538
  name: Masjid Al-Ikhlas
  alt_name: []
  latitude: -7.3055175726236845
  longitude: 112.77264967404464
  type: way
  amenity_type: place_of_worship
- id: 319955571
  name: Masjid Muttaqien
  alt_name: []
  latitude: -7.275517850836078
  longitude: 112.68837550914849
  type: way
  amenity_type: place_of_worship
- id: 320103381
  name: Masjid Al Quddus
  alt_name: []
  latitude: -7.305766720320907
  longitude: 112.77480313777863
  type: way
  amenity_type: place_of_worship
- id: 320141898
  name: Masjid Al Ikhlas
  alt_name: []
  latitude: -7.2385454587367
  longitude: 112.61486563127679
  type: way
  amenity_type: place_of_worship
- id: 321204839
  name: Masjid At Tin
  alt_name: []
  latitude: -7.2267758163520766
  longitude: 112.77835611926822
  type: way
  amenity_type: place_of_worship
- id: 321204847
  name: Musholla
  alt_name: []
  latitude: -7.2267527506409905
  longitude: 112.77895703637877
  type: way
  amenity_type: place_of_worship
- id: 350820465
  name: Masjid Al-Hikmah
  alt_name: []
  latitude: -7.3020159657750945
  longitude: 112.66922350965199
  type: way
  amenity_type: place_of_worship
- id: 350820470
  name: Masjid Baitul Makmur
  alt_name: []
  latitude: -7.3036224553718805
  longitude: 112.67300906451759
  type: way
  amenity_type: place_of_worship
- id: 350857254
  name: Masjid Baitul Muttaqin
  alt_name: []
  latitude: -7.303146473631921
  longitude: 112.75384028887386
  type: way
  amenity_type: place_of_worship
- id: 376504156
  name: Masjid Achmad Klampis Ngasem
  alt_name: []
  latitude: -7.285937408539323
  longitude: 112.77457522230412
  type: way
  amenity_type: place_of_worship
- id: 376918850
  name: Gereja Katolik Kelahiran Santa Perawan Maria
  alt_name:
  - Kepanjen Church
  latitude: -7.242081703366036
  longitude: 112.73694641037311
  type: way
  amenity_type: place_of_worship
- id: 381187065
  name: Masjid An Nur
  alt_name: []
  latitude: -7.256233399999999
  longitude: 112.75006125000002
  type: way
  amenity_type: place_of_worship
- id: 389893587
  name: Masjid Habiburrozaq
  alt_name: []
  latitude: -7.304948331008861
  longitude: 112.64237090686713
  type: way
  amenity_type: place_of_worship
- id: 394257086
  name: Masjid Baiturrozaq
  alt_name: []
  latitude: -7.283204722242941
  longitude: 112.65660619959729
  type: way
  amenity_type: place_of_worship
- id: 422548631
  name: Masjid Al Amiin
  alt_name: []
  latitude: -7.251139783831558
  longitude: 112.72840785835454
  type: way
  amenity_type: place_of_worship
- id: 422952963
  name: Gereja Pantekosta Kristus Gembala
  alt_name: []
  latitude: -7.276728113799044
  longitude: 112.74098543246035
  type: way
  amenity_type: place_of_worship
- id: 423210072
  name: Gereja Kristen Abdiel Trinitas
  alt_name: []
  latitude: -7.267783651375759
  longitude: 112.7485352865034
  type: way
  amenity_type: place_of_worship
- id: 423456697
  name: Gereja Yesus Kristus
  alt_name: []
  latitude: -7.290682998344512
  longitude: 112.74497482175654
  type: way
  amenity_type: place_of_worship
- id: 423456723
  name: GBI Berkat Bagi Bangsa
  alt_name: []
  latitude: -7.285647876939542
  longitude: 112.73509869708082
  type: way
  amenity_type: place_of_worship
- id: 432823669
  name: Masjid Al Muhajirin
  alt_name: []
  latitude: -7.324621018127203
  longitude: 112.69856644489374
  type: way
  amenity_type: place_of_worship
- id: 435125348
  name: Gereja Katolik Hati Kudus Yesus
  alt_name: []
  latitude: -7.2808016215702684
  longitude: 112.7421987296174
  type: way
  amenity_type: place_of_worship
- id: 435125351
  name: Keuskupan Surabaya
  alt_name: []
  latitude: -7.281324627558119
  longitude: 112.7421048949724
  type: way
  amenity_type: place_of_worship
- id: 435198451
  name: Masjid Ulul Azmi
  alt_name: []
  latitude: -7.268236546584086
  longitude: 112.78313516043106
  type: way
  amenity_type: place_of_worship
- id: 439640029
  name: Gereja Katolik Santo Yakobus
  alt_name: []
  latitude: -7.293107727031068
  longitude: 112.65469536673174
  type: way
  amenity_type: place_of_worship
- id: 441379993
  name: Gereja Bethany Citraland
  alt_name: []
  latitude: -7.293899529514055
  longitude: 112.65231519606353
  type: way
  amenity_type: place_of_worship
- id: 442545672
  name: Masjid Salafy
  alt_name: []
  latitude: -289337021893.3333
  longitude: -119221279658.66667
  type: way
  amenity_type: place_of_worship
- id: 442719846
  name: Masjid Baitul Hamdi
  alt_name: []
  latitude: 626490671605.3334
  longitude: 365332874581.3333
  type: way
  amenity_type: place_of_worship
- id: 445058770
  name: Masjid Hidayatullah
  alt_name: []
  latitude: -7.282446652456984
  longitude: 112.80207094216892
  type: way
  amenity_type: place_of_worship
- id: 445260312
  name: Masjid Baitul Muttaqin
  alt_name: []
  latitude: -7.283533918211799
  longitude: 112.66726299129493
  type: way
  amenity_type: place_of_worship
- id: 446524892
  name: Masjid Shalahuddin Kanwil Direktorat Djendral Pajak Jawa Timur I
  alt_name: []
  latitude: -7.303358544718646
  longitude: 112.7452579817129
  type: way
  amenity_type: place_of_worship
- id: 446941716
  name: Masjid Asqhal Madinah
  alt_name: []
  latitude: -7.277142749999999
  longitude: 112.8007318
  type: way
  amenity_type: place_of_worship
- id: 446946081
  name: Gereja Torsina
  alt_name: []
  latitude: -7.276465412745836
  longitude: 112.72410746677107
  type: way
  amenity_type: place_of_worship
- id: 446966034
  name: Masjid Poltekes
  alt_name: []
  latitude: -7.398655807623317
  longitude: 112.71636443258917
  type: way
  amenity_type: place_of_worship
- id: 447125787
  name: Masjid Irsyasduddiin
  alt_name: []
  latitude: -7.286695100286416
  longitude: 112.78525272803724
  type: way
  amenity_type: place_of_worship
- id: 447127196
  name: HURIA KRISTEN BATAK ( HKB )
  alt_name: []
  latitude: -7.277252679143434
  longitude: 112.76515055688596
  type: way
  amenity_type: place_of_worship
- id: 447127362
  name: Baitul Muttaqin
  alt_name: []
  latitude: -7.277164949999999
  longitude: 112.764365
  type: way
  amenity_type: place_of_worship
- id: 447130743
  name: GBT Mawar Saron
  alt_name: []
  latitude: -7.412061618503809
  longitude: 112.83493869841902
  type: way
  amenity_type: place_of_worship
- id: 447132767
  name: Gereja Wisma Mukti
  alt_name: []
  latitude: -7.292884354599184
  longitude: 112.77896594535996
  type: way
  amenity_type: place_of_worship
- id: 447147509
  name: Masjid Al-Hidayah
  alt_name: []
  latitude: 3803705.603928162
  longitude: 3470690.0514681684
  type: way
  amenity_type: place_of_worship
- id: 447148474
  name: Gereja Jemaat Bhaskara
  alt_name: []
  latitude: -9.989494699018454
  longitude: 113.39485303392115
  type: way
  amenity_type: place_of_worship
- id: 447161949
  name: Masjid Baitul Haq (LDII)
  alt_name: []
  latitude: -165777386378.66666
  longitude: -32434705920.0
  type: way
  amenity_type: place_of_worship
- id: 447166492
  name: Masjid Nur-Hasan
  alt_name: []
  latitude: -7.296467800000001
  longitude: 112.80044555000002
  type: way
  amenity_type: place_of_worship
- id: 447339279
  name: Masjid Al Muttaqin
  alt_name: []
  latitude: -7.108382197505573
  longitude: 112.81611063913886
  type: way
  amenity_type: place_of_worship
- id: 447343995
  name: Masjid Al-Amaliyah
  alt_name: []
  latitude: -7.169825639856871
  longitude: 112.80392028504276
  type: way
  amenity_type: place_of_worship
- id: 447348341
  name: Gereja Reformed Injili Indonesia
  alt_name: []
  latitude: -7.278127950000001
  longitude: 112.77356745000002
  type: way
  amenity_type: place_of_worship
- id: 447352164
  name: Gereja Betany Manyar
  alt_name: []
  latitude: -3.5922276264656534
  longitude: 113.08955889989939
  type: way
  amenity_type: place_of_worship
- id: 447356228
  name: Masjid Al Iman
  alt_name: []
  latitude: -7.440286752255027
  longitude: 112.75822719127416
  type: way
  amenity_type: place_of_worship
- id: 447371828
  name: Gereja Bethany Indonesia
  alt_name: []
  latitude: -7.335283770490132
  longitude: 112.77235800337091
  type: way
  amenity_type: place_of_worship
- id: 447471815
  name: Masjid Al Musthofa
  alt_name: []
  latitude: 449100.87959404493
  longitude: 40707.73328936923
  type: way
  amenity_type: place_of_worship
- id: 447608377
  name: Masjid Thariqul Jannah
  alt_name: []
  latitude: 252166222816.0
  longitude: 93256739413.33333
  type: way
  amenity_type: place_of_worship
- id: 447609054
  name: Masjid Al Mustajabah
  alt_name: []
  latitude: -7.211899998737812
  longitude: 112.76229039368144
  type: way
  amenity_type: place_of_worship
- id: 447609554
  name: Gereja Bethel Indonesia
  alt_name: []
  latitude: -7.244656231988053
  longitude: 112.75188924077548
  type: way
  amenity_type: place_of_worship
- id: 447609875
  name: Mbahjugho Cab. Gunung Kawi
  alt_name: []
  latitude: -7.288009598411709
  longitude: 112.74447872518985
  type: way
  amenity_type: place_of_worship
- id: 447610317
  name: Masjid At Taqwa
  alt_name: []
  latitude: -7.442298491428045
  longitude: 112.71315729964641
  type: way
  amenity_type: place_of_worship
- id: 447610598
  name: HKBP Surabaya
  alt_name: []
  latitude: -7.272014485708099
  longitude: 112.73792928728741
  type: way
  amenity_type: place_of_worship
- id: 447610616
  name: Gereja Mawar Sharon
  alt_name: []
  latitude: -7.461198317539246
  longitude: 112.69070365464017
  type: way
  amenity_type: place_of_worship
- id: 447610620
  name: Annex Building Gereja Mawar Sharon
  alt_name: []
  latitude: -7.230263036770917
  longitude: 112.74962025414443
  type: way
  amenity_type: place_of_worship
- id: 447610634
  name: Gereja Pantekosta
  alt_name: []
  latitude: -7.245142612499912
  longitude: 112.76385951062055
  type: way
  amenity_type: place_of_worship
- id: 447611381
  name: Masjid Al-Hikmah
  alt_name: []
  latitude: -7.089647377435398
  longitude: 112.80435212171366
  type: way
  amenity_type: place_of_worship
- id: 447612175
  name: Masjid Al-Falah
  alt_name: []
  latitude: -7.2450622114372365
  longitude: 112.7498799894599
  type: way
  amenity_type: place_of_worship
- id: 447612958
  name: Masjid Al-Amin
  alt_name: []
  latitude: -7.295426728645341
  longitude: 112.76453183128864
  type: way
  amenity_type: place_of_worship
- id: 447613062
  name: Masjid Al-Mukhlasin
  alt_name: []
  latitude: -7.2015595506859835
  longitude: 112.74805562851273
  type: way
  amenity_type: place_of_worship
- id: 447613099
  name: Gereja Pentakosta
  alt_name: []
  latitude: -7.271664200000001
  longitude: 112.7383635
  type: way
  amenity_type: place_of_worship
- id: 447613198
  name: Masjid Jami Miftahul Abidin
  alt_name: []
  latitude: -7.218811594239694
  longitude: 112.77688561448518
  type: way
  amenity_type: place_of_worship
- id: 447614317
  name: Masjid Roudlotul Jannah
  alt_name: []
  latitude: 169414.5278470991
  longitude: 79263.48178637515
  type: way
  amenity_type: place_of_worship
- id: 447615579
  name: Masjid KH. Agus Salim
  alt_name: []
  latitude: -7.349685436765379
  longitude: 112.75592053032477
  type: way
  amenity_type: place_of_worship
- id: 447615970
  name: Masjid Nurul Huda
  alt_name: []
  latitude: -7.35052561831115
  longitude: 112.72515314095915
  type: way
  amenity_type: place_of_worship
- id: 447616760
  name: Masjid Asma Nawawi
  alt_name: []
  latitude: -7.22425116368204
  longitude: 112.78554017138863
  type: way
  amenity_type: place_of_worship
- id: 447616790
  name: Masjid Biqudradillah
  alt_name: []
  latitude: 277858.058555769
  longitude: 37442.46746320137
  type: way
  amenity_type: place_of_worship
- id: 447617411
  name: ST. Marinus Yohanes
  alt_name: []
  latitude: -7.247807333317765
  longitude: 112.78969291395451
  type: way
  amenity_type: place_of_worship
- id: 447617412
  name: Gereja St Marinus Yohanes
  alt_name: []
  latitude: -7.247477867604288
  longitude: 112.79046156949204
  type: way
  amenity_type: place_of_worship
- id: 447623921
  name: Masjid Abal Qosim
  alt_name: []
  latitude: -395650.5732567842
  longitude: -41621.759116409994
  type: way
  amenity_type: place_of_worship
- id: 447624429
  name: Masjid Ulil Albaab
  alt_name: []
  latitude: -548700.7484858873
  longitude: -248145.7774730507
  type: way
  amenity_type: place_of_worship
- id: 447624609
  name: Masjid Irsyadul Ibad
  alt_name: []
  latitude: -8449652.71355921
  longitude: -1420757.8743808202
  type: way
  amenity_type: place_of_worship
- id: 447629437
  name: GPPS Jemaat Sawahan
  alt_name: []
  latitude: -6.902201502483389
  longitude: 112.83648716556385
  type: way
  amenity_type: place_of_worship
- id: 447631302
  name: Gereja Bethany
  alt_name: []
  latitude: -7.482977480883757
  longitude: 112.69834606608384
  type: way
  amenity_type: place_of_worship
- id: 447631752
  name: Mushola Roudhotul Muslimin
  alt_name: []
  latitude: -7.231750572129688
  longitude: 112.78345659180752
  type: way
  amenity_type: place_of_worship
- id: 447633086
  name: Masjid Al Furqon
  alt_name: []
  latitude: -7.147364041010099
  longitude: 112.79341806609345
  type: way
  amenity_type: place_of_worship
- id: 447633090
  name: Masjid Ainul Hasan
  alt_name: []
  latitude: -919601.4327064888
  longitude: -215700.61566482758
  type: way
  amenity_type: place_of_worship
- id: 447635463
  name: Masjid Nurullah
  alt_name: []
  latitude: -301140.35545202886
  longitude: -61428.35501413524
  type: way
  amenity_type: place_of_worship
- id: 447637060
  name: Masjid Al Hikmah
  alt_name: []
  latitude: -7.246646730611997
  longitude: 112.76822557517185
  type: way
  amenity_type: place_of_worship
- id: 447640081
  name: Masjid Jami' Kertajaya
  alt_name: []
  latitude: -7.169548771275552
  longitude: 112.76908461781422
  type: way
  amenity_type: place_of_worship
- id: 447641258
  name: Masjid Al Hidayah
  alt_name: []
  latitude: -7.288065025490177
  longitude: 112.74036554469029
  type: way
  amenity_type: place_of_worship
- id: 447642548
  name: Vihara Vimalakirti
  alt_name: []
  latitude: -7.288382783116131
  longitude: 112.7405172277504
  type: way
  amenity_type: place_of_worship
- id: 447643060
  name: Gereja Bethel Indonesia
  alt_name: []
  latitude: -7.329306860742549
  longitude: 112.90996306540532
  type: way
  amenity_type: place_of_worship
- id: 447643352
  name: Gereja Bala Keselamatan
  alt_name: []
  latitude: -7.248621554873526
  longitude: 112.74778267432629
  type: way
  amenity_type: place_of_worship
- id: 447648354
  name: Masjid Al Muttaqin
  alt_name: []
  latitude: -572096655.657695
  longitude: 4276582.647342996
  type: way
  amenity_type: place_of_worship
- id: 447648519
  name: Masjid Sabilus Salam
  alt_name: []
  latitude: 98735135.65440099
  longitude: 9836967.961120112
  type: way
  amenity_type: place_of_worship
- id: 447712162
  name: Masjid Waqaf At Tawwabin
  alt_name: []
  latitude: -7.286927023572719
  longitude: 112.74318268604543
  type: way
  amenity_type: place_of_worship
- id: 448066390
  name: Masjid Ibrahim
  alt_name: []
  latitude: -7.741047826935387
  longitude: 112.71475210021461
  type: way
  amenity_type: place_of_worship
- id: 448067235
  name: Masjid Jendral Sudirman
  alt_name: []
  latitude: -7.175555453749204
  longitude: 112.76476462547615
  type: way
  amenity_type: place_of_worship
- id: 448067620
  name: Masjid Sholeh
  alt_name: []
  latitude: 196584.03979666525
  longitude: 32419.70061712229
  type: way
  amenity_type: place_of_worship
- id: 448068728
  name: Gereja Kristus Tuhan
  alt_name: []
  latitude: -7.214206379673085
  longitude: 112.73990304264629
  type: way
  amenity_type: place_of_worship
- id: 448068936
  name: Masjid Baitul Fikri
  alt_name: []
  latitude: -673523184106.6666
  longitude: -256042962944.0
  type: way
  amenity_type: place_of_worship
- id: 448069848
  name: Vihara Dana Maitreya
  alt_name: []
  latitude: -7.24941504154242
  longitude: 112.74676271288305
  type: way
  amenity_type: place_of_worship
- id: 448070426
  name: Gereja Bethel Indonesia Ambengan
  alt_name: []
  latitude: -7.41172878319508
  longitude: 112.74969244813913
  type: way
  amenity_type: place_of_worship
- id: 448070674
  name: Masjid Miftahul Huda
  alt_name: []
  latitude: 11862709.342822721
  longitude: 4460281.200852562
  type: way
  amenity_type: place_of_worship
- id: 448070924
  name: Masjid Muhajirin
  alt_name: []
  latitude: -7.257110506137508
  longitude: 112.75237324907435
  type: way
  amenity_type: place_of_worship
- id: 448071550
  name: Masjid Nurul Hidayah
  alt_name: []
  latitude: -7.211408197893521
  longitude: 112.78891823817126
  type: way
  amenity_type: place_of_worship
- id: 448073180
  name: Masjid Al-Azar
  alt_name: []
  latitude: -7.314103885005953
  longitude: 112.73842033329974
  type: way
  amenity_type: place_of_worship
- id: 448075218
  name: Gereja Katolik Kristus Raja Surabaya
  alt_name: []
  latitude: -7.256236114728714
  longitude: 112.75455592552463
  type: way
  amenity_type: place_of_worship
- id: 448077525
  name: Masjid Al-Mu'allimin Jalan Ambengan Batu Tengah
  alt_name: []
  latitude: -7.255027599999999
  longitude: 112.75151345
  type: way
  amenity_type: place_of_worship
- id: 448077569
  name: Masjid Al Muallimin
  alt_name: []
  latitude: -7.255285336768814
  longitude: 112.75257895851793
  type: way
  amenity_type: place_of_worship
- id: 448078373
  name: Mushola Ji'ronah
  alt_name: []
  latitude: -128623488.44464155
  longitude: -4123693.485883222
  type: way
  amenity_type: place_of_worship
- id: 448082275
  name: Masjid An Nur
  alt_name: []
  latitude: -494395034528.0
  longitude: -97670217045.33333
  type: way
  amenity_type: place_of_worship
- id: 448084200
  name: Masjid Baitur Rouf
  alt_name: []
  latitude: -7.297369765163107
  longitude: 112.78607953094588
  type: way
  amenity_type: place_of_worship
- id: 448084245
  name: Langgar Wakaf Al-Hidayah
  alt_name: []
  latitude: -7.334710282115013
  longitude: 112.77218726655647
  type: way
  amenity_type: place_of_worship
- id: 448086882
  name: Masjid Attaqwa
  alt_name: []
  latitude: 171908.576196436
  longitude: 24169.234103475905
  type: way
  amenity_type: place_of_worship
- id: 448088388
  name: Masjid As Syifa
  alt_name: []
  latitude: -7.26688345
  longitude: 112.76027164999998
  type: way
  amenity_type: place_of_worship
- id: 448091153
  name: Masjid Baitul Qodir
  alt_name: []
  latitude: -215044.20645277214
  longitude: -72459.81919521761
  type: way
  amenity_type: place_of_worship
- id: 448093722
  name: Masjid Muhajirin
  alt_name: []
  latitude: -7.221354371947935
  longitude: 112.78787621511043
  type: way
  amenity_type: place_of_worship
- id: 448095366
  name: Masjid Al-Ishlah
  alt_name: []
  latitude: -7.246246876555094
  longitude: 112.76927004705162
  type: way
  amenity_type: place_of_worship
- id: 448095592
  name: Masjid Mubarak
  alt_name: []
  latitude: -7.275939103192304
  longitude: 112.74230405033381
  type: way
  amenity_type: place_of_worship
- id: 448095822
  name: Masjid Nabaussalam
  alt_name: []
  latitude: 483818.1682762322
  longitude: 161518.1747784379
  type: way
  amenity_type: place_of_worship
- id: 448097584
  name: Masjid Assakienah
  alt_name: []
  latitude: -7.603731512237983
  longitude: 112.62637579898528
  type: way
  amenity_type: place_of_worship
- id: 448098311
  name: Masjid Nurul Huda
  alt_name: []
  latitude: -7.232066838124357
  longitude: 112.78010305712459
  type: way
  amenity_type: place_of_worship
- id: 448102401
  name: Musholla
  alt_name: []
  latitude: -7.241152949999999
  longitude: 112.76293815
  type: way
  amenity_type: place_of_worship
- id: 448102529
  name: LDII
  alt_name: []
  latitude: -7.212756165007256
  longitude: 112.77281461634396
  type: way
  amenity_type: place_of_worship
- id: 448104065
  name: Musholla Kantor Kelurahan
  alt_name: []
  latitude: -7.287169799999999
  longitude: 112.78031575
  type: way
  amenity_type: place_of_worship
- id: 448105390
  name: Masjid At Taqwa
  alt_name: []
  latitude: -7.233880798304762
  longitude: 112.6685953668496
  type: way
  amenity_type: place_of_worship
- id: 448105658
  name: Masjid Mirah Al Ikhlas
  alt_name: []
  latitude: -7.240389599999999
  longitude: 112.77987865
  type: way
  amenity_type: place_of_worship
- id: 448106141
  name: Masjid An-Nur Klampis Aji
  alt_name: []
  latitude: -39665305.39536608
  longitude: -7093058.843126351
  type: way
  amenity_type: place_of_worship
- id: 448108088
  name: Masjid Nuurussalaam
  alt_name: []
  latitude: -7.263731812609928
  longitude: 112.73564174344298
  type: way
  amenity_type: place_of_worship
- id: 448109121
  name: Gereja Pantekosta
  alt_name: []
  latitude: -202355.92265464106
  longitude: -70674.7445311931
  type: way
  amenity_type: place_of_worship
- id: 448112079
  name: Masjid Baitul Mahfuudh
  alt_name: []
  latitude: -668691.8863383594
  longitude: -184909.70475977237
  type: way
  amenity_type: place_of_worship
- id: 448112247
  name: Masjid An-Nur
  alt_name: []
  latitude: 317834347178.6667
  longitude: 56836925269.333336
  type: way
  amenity_type: place_of_worship
- id: 448118739
  name: Masjid Al Ikhlas
  alt_name: []
  latitude: -662608.2298172635
  longitude: -200802.85158216133
  type: way
  amenity_type: place_of_worship
- id: 448118810
  name: Masjid Al Mi'raj Komplek TNI AU Kenjeran
  alt_name: []
  latitude: -7.2514042631280695
  longitude: 112.79344738964309
  type: way
  amenity_type: place_of_worship
- id: 448165880
  name: Masjid Baabussalam
  alt_name: []
  latitude: -7.173379996566476
  longitude: 112.807180331885
  type: way
  amenity_type: place_of_worship
- id: 448177527
  name: Musholla Ar Rizqy
  alt_name: []
  latitude: 158508182901.33334
  longitude: 3427204096.0
  type: way
  amenity_type: place_of_worship
- id: 448232209
  name: Majid Darussalam
  alt_name: []
  latitude: -7.256467428703035
  longitude: 112.7919522570166
  type: way
  amenity_type: place_of_worship
- id: 448233250
  name: Gereja Keluarga Allah Blessing
  alt_name: []
  latitude: -7.267556439127919
  longitude: 112.73820985409314
  type: way
  amenity_type: place_of_worship
- id: 448233740
  name: Yayasan Sahabat Sinoman Indonesia
  alt_name: []
  latitude: -7.2496782
  longitude: 112.74879304999999
  type: way
  amenity_type: place_of_worship
- id: 448233977
  name: Pura Segara
  alt_name: []
  latitude: 1544544690.8999212
  longitude: 75519178.33884948
  type: way
  amenity_type: place_of_worship
- id: 448234279
  name: Masjid Muhajirin
  alt_name: []
  latitude: -7.2970745027596475
  longitude: 112.7566477811083
  type: way
  amenity_type: place_of_worship
- id: 448234475
  name: Masjid Nurul Jadid
  alt_name: []
  latitude: -7.239839602254134
  longitude: 112.77734608333736
  type: way
  amenity_type: place_of_worship
- id: 448235505
  name: Gereja Kristen Indonesia Araya
  alt_name: []
  latitude: -7.298715682244159
  longitude: 112.7836901054582
  type: way
  amenity_type: place_of_worship
- id: 448236286
  name: Masjid Ash-Shiddiiq
  alt_name: []
  latitude: -7.248829402508796
  longitude: 112.77434407223284
  type: way
  amenity_type: place_of_worship
- id: 448236435
  name: Masjid Nurul Islam
  alt_name: []
  latitude: -7.2551351
  longitude: 112.78350679999998
  type: way
  amenity_type: place_of_worship
- id: 448240295
  name: Masjid Muhajidin
  alt_name: []
  latitude: -7.249531446549225
  longitude: 112.74538114593358
  type: way
  amenity_type: place_of_worship
- id: 448241498
  name: Masjid Rochman Arief
  alt_name: []
  latitude: -7.256157588653622
  longitude: 112.75717262954394
  type: way
  amenity_type: place_of_worship
- id: 448241837
  name: Masjid Taqwa
  alt_name: []
  latitude: -7.236606500000002
  longitude: 112.76093895000001
  type: way
  amenity_type: place_of_worship
- id: 448242386
  name: Masjid Al-Musyawaroh
  alt_name: []
  latitude: -7.249300899999999
  longitude: 112.7720652
  type: way
  amenity_type: place_of_worship
- id: 448242678
  name: Masjid Mu'Thi
  alt_name: []
  latitude: -23903592.197260275
  longitude: -13846993.508269913
  type: way
  amenity_type: place_of_worship
- id: 448243294
  name: Masjid Al Amin
  alt_name: []
  latitude: -7.234885051079105
  longitude: 112.76121079520588
  type: way
  amenity_type: place_of_worship
- id: 448243322
  name: Masjid Nurul Islam
  alt_name: []
  latitude: -4361006.595931038
  longitude: -780129.9424580076
  type: way
  amenity_type: place_of_worship
- id: 448244572
  name: Masjid Al Ittihad
  alt_name: []
  latitude: 20179509.250532724
  longitude: 12270762.926433284
  type: way
  amenity_type: place_of_worship
- id: 448245425
  name: GKI Lebak Jaya
  alt_name: []
  latitude: 1191091.2487948446
  longitude: 367246.46378009266
  type: way
  amenity_type: place_of_worship
- id: 448245482
  name: Vihara Widiya Surya Padma
  alt_name: []
  latitude: -152978.78191408957
  longitude: -72046.68873380653
  type: way
  amenity_type: place_of_worship
- id: 448245654
  name: Gereja Bethel Indonesia
  alt_name: []
  latitude: 6846553.069334253
  longitude: 1435896.2731976544
  type: way
  amenity_type: place_of_worship
- id: 448246008
  name: Masjid Ahmad Yani
  alt_name: []
  latitude: -7.238803961433419
  longitude: 112.76116753757339
  type: way
  amenity_type: place_of_worship
- id: 448247872
  name: Masjid Saifunnur
  alt_name: []
  latitude: -7.176284394817079
  longitude: 112.78191783833054
  type: way
  amenity_type: place_of_worship
- id: 448250963
  name: Masjid Gresikan I
  alt_name: []
  latitude: -7.348303292821541
  longitude: 112.71506227147118
  type: way
  amenity_type: place_of_worship
- id: 448250968
  name: Masjid Al Ishlah
  alt_name: []
  latitude: -7.257649900000001
  longitude: 112.7627095
  type: way
  amenity_type: place_of_worship
- id: 448252274
  name: Masjid Ibrahim Bin Muhammad
  alt_name: []
  latitude: -7.193609313689698
  longitude: 112.84125137916496
  type: way
  amenity_type: place_of_worship
- id: 448253218
  name: Mushollah Da'watus Sholihin
  alt_name: []
  latitude: -7.2575638990447695
  longitude: 112.79637174921578
  type: way
  amenity_type: place_of_worship
- id: 448253251
  name: Masjid Miftahul Jannah
  alt_name: []
  latitude: -7.247868506948321
  longitude: 112.79697286900996
  type: way
  amenity_type: place_of_worship
- id: 448253351
  name: Masjid Nurul Hidayah
  alt_name: []
  latitude: -7.218275380364738
  longitude: 112.76850114935947
  type: way
  amenity_type: place_of_worship
- id: 448258536
  name: Gereja Oikumene
  alt_name: []
  latitude: -7.303907984310392
  longitude: 112.78771953044573
  type: way
  amenity_type: place_of_worship
- id: 448259815
  name: Masjid Al Mu'minun
  alt_name: []
  latitude: -7.217593637443537
  longitude: 112.8067488089149
  type: way
  amenity_type: place_of_worship
- id: 448262915
  name: Masjid Nurul Islam
  alt_name: []
  latitude: -7.369145170179653
  longitude: 112.74823592631957
  type: way
  amenity_type: place_of_worship
- id: 448263653
  name: Masjid Mamba'urrokhim
  alt_name: []
  latitude: -7.211995330892267
  longitude: 112.78950212844265
  type: way
  amenity_type: place_of_worship
- id: 448264681
  name: Masjid Roudhotul Jannah
  alt_name: []
  latitude: -23992103.34601608
  longitude: -8799496.116957203
  type: way
  amenity_type: place_of_worship
- id: 448264917
  name: Masjid Umar Bin Al-kath-thab
  alt_name: []
  latitude: -7.475211092039216
  longitude: 112.72073569972606
  type: way
  amenity_type: place_of_worship
- id: 448267950
  name: Masjid Nashuha
  alt_name: []
  latitude: -7.2661772
  longitude: 112.73298014999999
  type: way
  amenity_type: place_of_worship
- id: 448268090
  name: Masjid Al Istiqomah
  alt_name: []
  latitude: -56748112.973741114
  longitude: -8118299.50596231
  type: way
  amenity_type: place_of_worship
- id: 448268701
  name: Masjid Syamsul Falaah
  alt_name: []
  latitude: -7.267932694319663
  longitude: 112.80040461661427
  type: way
  amenity_type: place_of_worship
- id: 448269220
  name: Gereja Pantekosta Pusat Surabaya
  alt_name: []
  latitude: -7.248939238982198
  longitude: 112.74285324058464
  type: way
  amenity_type: place_of_worship
- id: 448269801
  name: Masjid Nurul Falah
  alt_name: []
  latitude: -7.221522953903959
  longitude: 112.78169074133889
  type: way
  amenity_type: place_of_worship
- id: 448270674
  name: Masjid Khoirul Huda
  alt_name: []
  latitude: -7.262358250000001
  longitude: 112.73500775000001
  type: way
  amenity_type: place_of_worship
- id: 448270952
  name: Masjid Darun Najah
  alt_name: []
  latitude: -6.907367060546048
  longitude: 112.83137683312374
  type: way
  amenity_type: place_of_worship
- id: 448272185
  name: Masjid Sholihin
  alt_name: []
  latitude: -7.247434965135799
  longitude: 112.76045738016929
  type: way
  amenity_type: place_of_worship
- id: 448272368
  name: Masjid Ash Shodiqin
  alt_name: []
  latitude: 189699.358275966
  longitude: 79397.41434056891
  type: way
  amenity_type: place_of_worship
- id: 448273809
  name: Masjid Baitul Jamil
  alt_name: []
  latitude: -8.59123166890004
  longitude: 112.64487503377336
  type: way
  amenity_type: place_of_worship
- id: 448274884
  name: Gereja Graha Gloria
  alt_name: []
  latitude: -7.256204156331846
  longitude: 112.74821306832776
  type: way
  amenity_type: place_of_worship
- id: 448276244
  name: Masjid Tiban
  alt_name: []
  latitude: -7.253483263769459
  longitude: 112.76246312219067
  type: way
  amenity_type: place_of_worship
- id: 448280863
  name: Masjid Al Hikmah
  alt_name: []
  latitude: -55829726.4328594
  longitude: -12135440.128404424
  type: way
  amenity_type: place_of_worship
- id: 448282163
  name: Gereja Kalam Hidup
  alt_name: []
  latitude: -7.208294614344052
  longitude: 112.77699800906841
  type: way
  amenity_type: place_of_worship
- id: 448288943
  name: Gereja Segala Bangsa
  alt_name: []
  latitude: -7.279240772708532
  longitude: 112.74434127071346
  type: way
  amenity_type: place_of_worship
- id: 448290889
  name: Masjid Assakinah
  alt_name: []
  latitude: -7.309968537556236
  longitude: 112.76766542319461
  type: way
  amenity_type: place_of_worship
- id: 448292863
  name: Masjid Al-Badar
  alt_name: []
  latitude: -7.252192397855265
  longitude: 112.77503824290041
  type: way
  amenity_type: place_of_worship
- id: 448293038
  name: Graha GSJS
  alt_name: []
  latitude: -7.259129299999999
  longitude: 112.74928764999999
  type: way
  amenity_type: place_of_worship
- id: 448293625
  name: Islam Al - Mabrur
  alt_name: []
  latitude: 315223.0838756374
  longitude: 72298.4892194907
  type: way
  amenity_type: place_of_worship
- id: 448294860
  name: Masjid Miftahul Jannah
  alt_name: []
  latitude: -7.256068162502896
  longitude: 112.73503100718916
  type: way
  amenity_type: place_of_worship
- id: 448295752
  name: Masjid Nurul Hidayah
  alt_name: []
  latitude: -7.288966907754082
  longitude: 112.75937983995313
  type: way
  amenity_type: place_of_worship
- id: 448333071
  name: Masjid Al Mustofa
  alt_name: []
  latitude: -7.157362755375938
  longitude: 112.8122620485517
  type: way
  amenity_type: place_of_worship
- id: 448426614
  name: Masjid Masyithoh
  alt_name: []
  latitude: -7.273791939905479
  longitude: 112.79660846009959
  type: way
  amenity_type: place_of_worship
- id: 448436038
  name: Masjid At Taqwa
  alt_name: []
  latitude: -7.268206868469434
  longitude: 112.7769345697873
  type: way
  amenity_type: place_of_worship
- id: 448444566
  name: Masjid Arief Rahman Hakim
  alt_name: []
  latitude: -7.253329699999999
  longitude: 112.77310934999998
  type: way
  amenity_type: place_of_worship
- id: 448446364
  name: GBI Anugrah
  alt_name: []
  latitude: -7.355118048232222
  longitude: 112.74872440031564
  type: way
  amenity_type: place_of_worship
- id: 448449780
  name: Masjid Syamsul Huda
  alt_name: []
  latitude: -269072.66216547304
  longitude: -129958.42199061254
  type: way
  amenity_type: place_of_worship
- id: 448450054
  name: Masjid Waqaf Al Maryam
  alt_name: []
  latitude: -7.267323049999999
  longitude: 112.72983485
  type: way
  amenity_type: place_of_worship
- id: 448450299
  name: Masjid Baitul Amien
  alt_name: []
  latitude: -7.528509924489978
  longitude: 112.66137983368152
  type: way
  amenity_type: place_of_worship
- id: 448450522
  name: Gereja Jemaat Kristen Indonesia Bukit Zion
  alt_name: []
  latitude: -2.8162145741465148
  longitude: 113.20414519911972
  type: way
  amenity_type: place_of_worship
- id: 448450680
  name: Masjid Nur Sobah
  alt_name: []
  latitude: -6.110186693057099
  longitude: 112.8897677341101
  type: way
  amenity_type: place_of_worship
- id: 448450681
  name: Masjid Sholihin
  alt_name: []
  latitude: -7.241493734555281
  longitude: 112.79836412735135
  type: way
  amenity_type: place_of_worship
- id: 448453939
  name: Masjid Syuhada
  alt_name: []
  latitude: -7.2602717635893725
  longitude: 112.75991868103722
  type: way
  amenity_type: place_of_worship
- id: 448460644
  name: Masjid Al Ishlah
  alt_name: []
  latitude: -7.267391388977997
  longitude: 112.7332956546447
  type: way
  amenity_type: place_of_worship
- id: 448465176
  name: Masjid Al Ikhlas Pacar Kembang
  alt_name: []
  latitude: 245732.71846490304
  longitude: 85531.55210952468
  type: way
  amenity_type: place_of_worship
- id: 448467379
  name: Gereja Bethel Injil Sepenuh 'Bukit Zaitun'
  alt_name: []
  latitude: -7.29164773468599
  longitude: 112.72479401547494
  type: way
  amenity_type: place_of_worship
- id: 448469242
  name: Gereja Panteskosta Tabernakel Sion
  alt_name: []
  latitude: -1415543.996134183
  longitude: 3463081.854780091
  type: way
  amenity_type: place_of_worship
- id: 448469467
  name: Masjid Al-Marsu'ah
  alt_name: []
  latitude: -7.234226131941671
  longitude: 112.78355857097264
  type: way
  amenity_type: place_of_worship
- id: 448471039
  name: Masjid Padi Wojo II
  alt_name: []
  latitude: -7.310614996674299
  longitude: 112.72838807599474
  type: way
  amenity_type: place_of_worship
- id: 448472733
  name: Masjid An-nur
  alt_name: []
  latitude: -7.2697159
  longitude: 112.73640889999997
  type: way
  amenity_type: place_of_worship
- id: 448473823
  name: Gereja Betkel Raja Damai
  alt_name: []
  latitude: -7.256423664871992
  longitude: 112.77143696767538
  type: way
  amenity_type: place_of_worship
- id: 448474554
  name: Masjid Taqwallah
  alt_name: []
  latitude: -7.24927548752495
  longitude: 112.75668368923482
  type: way
  amenity_type: place_of_worship
- id: 448475603
  name: Masjid Al Hidayah
  alt_name: []
  latitude: -154636.4067260178
  longitude: 471490.980282092
  type: way
  amenity_type: place_of_worship
- id: 448477364
  name: GBI Pengharapan
  alt_name: []
  latitude: -7.274749189564583
  longitude: 112.72857731414223
  type: way
  amenity_type: place_of_worship
- id: 448478893
  name: Masjid Nurul Huda Kapas Krampung
  alt_name: []
  latitude: -7.298968269630615
  longitude: 112.74477573129269
  type: way
  amenity_type: place_of_worship
- id: 448589942
  name: Masjid Noor Mushola
  alt_name: []
  latitude: -7.248404751952667
  longitude: 112.76033132663632
  type: way
  amenity_type: place_of_worship
- id: 448590487
  name: Masjid Al Mu'minun
  alt_name: []
  latitude: -7.297991858399982
  longitude: 112.76500365884927
  type: way
  amenity_type: place_of_worship
- id: 448590508
  name: Masjid Khairul Huda
  alt_name: []
  latitude: -7.420761469080414
  longitude: 112.75998113787787
  type: way
  amenity_type: place_of_worship
- id: 448605724
  name: Masjid As Sakinah
  alt_name: []
  latitude: -7.157895171824413
  longitude: 112.80617689955123
  type: way
  amenity_type: place_of_worship
- id: 448622878
  name: Masjid Miftaqul Jannah
  alt_name: []
  latitude: 114037.67890738157
  longitude: -408134.97231611545
  type: way
  amenity_type: place_of_worship
- id: 448768599
  name: Pura Tirtawening
  alt_name: []
  latitude: -7.252850417728704
  longitude: 112.76674801848584
  type: way
  amenity_type: place_of_worship
- id: 448770104
  name: Masjid Assyafi'iyah
  alt_name: []
  latitude: -7.054834129782448
  longitude: 112.7432105001489
  type: way
  amenity_type: place_of_worship
- id: 448770795
  name: Masjid Maryam
  alt_name: []
  latitude: -7.287702131793509
  longitude: 112.76054427700389
  type: way
  amenity_type: place_of_worship
- id: 448770796
  name: Roudlotul Falah
  alt_name: []
  latitude: 294372484448.0
  longitude: 47053691562.666664
  type: way
  amenity_type: place_of_worship
- id: 448773012
  name: Gereja Kemah Injil Indonesia Surabaya
  alt_name: []
  latitude: 41671694.823761076
  longitude: 9095763.120883929
  type: way
  amenity_type: place_of_worship
- id: 448773014
  name: Masjid Jamiyatul Maarif
  alt_name: []
  latitude: -21700549.72422008
  longitude: -6860058.710053473
  type: way
  amenity_type: place_of_worship
- id: 448773017
  name: Masjid Baitunaim
  alt_name: []
  latitude: -7.155902275713998
  longitude: 112.79201276516909
  type: way
  amenity_type: place_of_worship
- id: 448775256
  name: Masjid Fathurrohim
  alt_name: []
  latitude: -7.29942847059257
  longitude: 112.77334863235302
  type: way
  amenity_type: place_of_worship
- id: 448779331
  name: Masjid Al-Mukminun
  alt_name: []
  latitude: -7.38373765468342
  longitude: 112.7703047165577
  type: way
  amenity_type: place_of_worship
- id: 448781746
  name: Musholla Polsek Gubeng
  alt_name: []
  latitude: -7.290407616723543
  longitude: 112.75374621721942
  type: way
  amenity_type: place_of_worship
- id: 449036036
  name: Masjid As-Syuro
  alt_name: []
  latitude: -7.569690715470306
  longitude: 112.71763589993778
  type: way
  amenity_type: place_of_worship
- id: 449075122
  name: Musholla Hikudritolillah
  alt_name: []
  latitude: -7.124084924483649
  longitude: 112.80162280003809
  type: way
  amenity_type: place_of_worship
- id: 449081483
  name: Masjid Al Mabrur
  alt_name: []
  latitude: -7.229072899999999
  longitude: 112.78711080000001
  type: way
  amenity_type: place_of_worship
- id: 449147739
  name: Masjid Al Islam
  alt_name: []
  latitude: -7.292755846229556
  longitude: 112.73662197864498
  type: way
  amenity_type: place_of_worship
- id: 449147740
  name: Masjid Faskho
  alt_name: []
  latitude: -7.24722979830113
  longitude: 112.74704585618133
  type: way
  amenity_type: place_of_worship
- id: 449149851
  name: Masjid Bustanul Huda
  alt_name: []
  latitude: -7.279684998559909
  longitude: 112.74828793932983
  type: way
  amenity_type: place_of_worship
- id: 449149862
  name: Masjid Nurul Islam
  alt_name: []
  latitude: 230214695082.66666
  longitude: 95422322944.0
  type: way
  amenity_type: place_of_worship
- id: 449150191
  name: Masjid Miftachul Huda
  alt_name: []
  latitude: -7.2328686000000015
  longitude: 112.78495165000002
  type: way
  amenity_type: place_of_worship
- id: 449150192
  name: Masjid Riyadlul Jinaan
  alt_name: []
  latitude: -7.267658390198551
  longitude: 112.77942908798991
  type: way
  amenity_type: place_of_worship
- id: 449151830
  name: Masjid Al Marsu'ah
  alt_name: []
  latitude: -7.2579978892159405
  longitude: 112.77223447648917
  type: way
  amenity_type: place_of_worship
- id: 449151831
  name: Masjid Asmaul Husna
  alt_name: []
  latitude: -7.261055970478569
  longitude: 112.76553951048314
  type: way
  amenity_type: place_of_worship
- id: 449151832
  name: Masjid At-Taqwa
  alt_name: []
  latitude: -7.366976894479786
  longitude: 112.70130099959651
  type: way
  amenity_type: place_of_worship
- id: 449151840
  name: Masjid Bustanul Huda
  alt_name: []
  latitude: -7.257768031512073
  longitude: 112.7666973779703
  type: way
  amenity_type: place_of_worship
- id: 449151855
  name: Masjid Al Muslimun
  alt_name: []
  latitude: -7.264088156009003
  longitude: 112.76915076302191
  type: way
  amenity_type: place_of_worship
- id: 449151856
  name: Masjid Amanah
  alt_name: []
  latitude: -7.286378408750022
  longitude: 112.7630439440834
  type: way
  amenity_type: place_of_worship
- id: 449151857
  name: Masjid Sabilul Muttaqin
  alt_name: []
  latitude: -7.2592157
  longitude: 112.76953950000001
  type: way
  amenity_type: place_of_worship
- id: 449151861
  name: Masjid Roudlotul Jannah
  alt_name: []
  latitude: -7.235349768948108
  longitude: 112.78455039575859
  type: way
  amenity_type: place_of_worship
- id: 449174340
  name: Masjidillah
  alt_name: []
  latitude: -7.273978650000001
  longitude: 112.76215065
  type: way
  amenity_type: place_of_worship
- id: 449178005
  name: Masjid Al Fattah
  alt_name: []
  latitude: -7.282197331365132
  longitude: 112.73074378153122
  type: way
  amenity_type: place_of_worship
- id: 449182767
  name: Masjid Waqaf Al Jihad
  alt_name: []
  latitude: -7.273943178921584
  longitude: 112.73571893431564
  type: way
  amenity_type: place_of_worship
- id: 449182768
  name: Masjid Waqaf Nurudin
  alt_name: []
  latitude: -7.183932002061007
  longitude: 112.75412941286028
  type: way
  amenity_type: place_of_worship
- id: 449293999
  name: Gereja Kristen Indonesia
  alt_name: []
  latitude: -7.26653039116715
  longitude: 112.73745107001919
  type: way
  amenity_type: place_of_worship
- id: 449294001
  name: Masjid Nurul Huda
  alt_name: []
  latitude: 181564863893.33334
  longitude: 32905714346.666668
  type: way
  amenity_type: place_of_worship
- id: 449294002
  name: Masjid Sabilillah
  alt_name: []
  latitude: -7.275714313785001
  longitude: 112.73573895947217
  type: way
  amenity_type: place_of_worship
- id: 449294008
  name: Masjid Raden Rahmat
  alt_name: []
  latitude: -7.306757535393134
  longitude: 112.70358782756367
  type: way
  amenity_type: place_of_worship
- id: 449294391
  name: Gereja Pantekosta di Indonesia
  alt_name: []
  latitude: -7.264671662670882
  longitude: 112.73483375912647
  type: way
  amenity_type: place_of_worship
- id: 449296670
  name: Masjid Sabilul Muttaqin
  alt_name: []
  latitude: 133916.27632085956
  longitude: 59738.829604607345
  type: way
  amenity_type: place_of_worship
- id: 449296671
  name: Mushola
  alt_name: []
  latitude: -7.285742730322004
  longitude: 112.75635645269766
  type: way
  amenity_type: place_of_worship
- id: 449296682
  name: Gereja Bethel Tabernakel Kristus Pancaran Kasih
  alt_name: []
  latitude: -7.248148387721778
  longitude: 112.76234884548059
  type: way
  amenity_type: place_of_worship
- id: 449296739
  name: Masjid Al Anwar
  alt_name: []
  latitude: -7.387109355213857
  longitude: 112.72466110008236
  type: way
  amenity_type: place_of_worship
- id: 449296740
  name: Masjid Al Hadits
  alt_name: []
  latitude: -7.405239399719626
  longitude: 112.72199753300438
  type: way
  amenity_type: place_of_worship
- id: 449299294
  name: Masjid Al Hikmah
  alt_name: []
  latitude: -313134573109.3333
  longitude: -83917693269.33333
  type: way
  amenity_type: place_of_worship
- id: 449300207
  name: Gereja Utusan Pantekosta
  alt_name: []
  latitude: -203438.64115408412
  longitude: 7956.190925919988
  type: way
  amenity_type: place_of_worship
- id: 449300557
  name: Gereja Eben Haezer
  alt_name: []
  latitude: -7.285484650725946
  longitude: 112.73661738165596
  type: way
  amenity_type: place_of_worship
- id: 449304180
  name: Vihara Dhammadipa
  alt_name: []
  latitude: -7.275180146519765
  longitude: 112.73363939029016
  type: way
  amenity_type: place_of_worship
- id: 449309123
  name: Masjid Mirah Al Ikhlas
  alt_name: []
  latitude: -7.311409387171735
  longitude: 112.75168916683985
  type: way
  amenity_type: place_of_worship
- id: 449310963
  name: Masjid Nurul Aziz
  alt_name: []
  latitude: -251255.5753592678
  longitude: -45266.87409451181
  type: way
  amenity_type: place_of_worship
- id: 449312166
  name: Masjid Bani Roslani
  alt_name: []
  latitude: 8523783.99495438
  longitude: 4506126.4955079965
  type: way
  amenity_type: place_of_worship
- id: 449315594
  name: Masjid Al Azhar
  alt_name: []
  latitude: -241931.3516439386
  longitude: -83154.12900448605
  type: way
  amenity_type: place_of_worship
- id: 449316574
  name: Gereja Kristen Indonesia Manyar
  alt_name: []
  latitude: -7.284616711459133
  longitude: 112.77025398424914
  type: way
  amenity_type: place_of_worship
- id: 449316577
  name: Masjid Miftahul Jannah
  alt_name: []
  latitude: -6.961786815337746
  longitude: 112.81857280006453
  type: way
  amenity_type: place_of_worship
- id: 449316720
  name: Masjid Darussalam
  alt_name: []
  latitude: -7.173730239058292
  longitude: 112.78990336774484
  type: way
  amenity_type: place_of_worship
- id: 449322776
  name: Masjid Baitul Akhiroh
  alt_name: []
  latitude: -7.301151893391493
  longitude: 112.76356752076421
  type: way
  amenity_type: place_of_worship
- id: 449327205
  name: Masjid Arrohmah
  alt_name: []
  latitude: -7.694572305481794
  longitude: 112.6583093336131
  type: way
  amenity_type: place_of_worship
- id: 449328054
  name: Gereja GBI Tambak Anakan
  alt_name: []
  latitude: -7.247733719421108
  longitude: 112.75537060695743
  type: way
  amenity_type: place_of_worship
- id: 449331653
  name: Masjid Baitus Syakur
  alt_name: []
  latitude: -7.256241767871938
  longitude: 112.77681562059024
  type: way
  amenity_type: place_of_worship
- id: 449476754
  name: Masjid Al-Machfudz
  alt_name: []
  latitude: -7.336562737561425
  longitude: 112.77928006667668
  type: way
  amenity_type: place_of_worship
- id: 449510446
  name: Masjid Al Ikhlas Bumi Marina Mas
  alt_name: []
  latitude: -7.294076377404011
  longitude: 112.80512106072388
  type: way
  amenity_type: place_of_worship
- id: 449516147
  name: Masjid Bustanul Athfal
  alt_name: []
  latitude: -7.289444550000001
  longitude: 112.7593871
  type: way
  amenity_type: place_of_worship
- id: 449518121
  name: Gereja Cornelius
  alt_name: []
  latitude: -7.347458076588876
  longitude: 112.75977929766746
  type: way
  amenity_type: place_of_worship
- id: 449518152
  name: Masjid Al-Muchtarom
  alt_name: []
  latitude: -6.7730720763836745
  longitude: 112.81931889993493
  type: way
  amenity_type: place_of_worship
- id: 449518153
  name: Masjid An-Najah
  alt_name: []
  latitude: -6.979266743392234
  longitude: 112.8097272332701
  type: way
  amenity_type: place_of_worship
- id: 449519057
  name: GKIN Betheda
  alt_name: []
  latitude: 34348890.35991285
  longitude: 2887851.9773420477
  type: way
  amenity_type: place_of_worship
- id: 449519089
  name: Masjid Al Fatah
  alt_name: []
  latitude: -7.2399843
  longitude: 112.78168705
  type: way
  amenity_type: place_of_worship
- id: 449519090
  name: Masjid Al Hafidz
  alt_name: []
  latitude: 110076.28065549524
  longitude: 26476.7322186622
  type: way
  amenity_type: place_of_worship
- id: 449519091
  name: Masjid Nur Hidayatulloh
  alt_name: []
  latitude: -7.387241415897009
  longitude: 112.74547086679543
  type: way
  amenity_type: place_of_worship
- id: 449620537
  name: Masjid Raudlotus Salikin
  alt_name: []
  latitude: 326153.14406088874
  longitude: -190016.7902060668
  type: way
  amenity_type: place_of_worship
- id: 449624131
  name: GBI Cahaya Kasih
  alt_name: []
  latitude: -7.232909166245187
  longitude: 112.75358751286069
  type: way
  amenity_type: place_of_worship
- id: 449624541
  name: Masjid Abdul Qodir
  alt_name: []
  latitude: 71276085210.66667
  longitude: -102005130752.0
  type: way
  amenity_type: place_of_worship
- id: 449624542
  name: Masjid Al Faroch
  alt_name: []
  latitude: -7.233227824826018
  longitude: 112.77363060472786
  type: way
  amenity_type: place_of_worship
- id: 449624543
  name: Masjid Al Muhajirin
  alt_name: []
  latitude: -533239.0463449369
  longitude: -116005.16102573759
  type: way
  amenity_type: place_of_worship
- id: 449624544
  name: Masjid Attinah
  alt_name: []
  latitude: 590860.9552391128
  longitude: 10914.027764407081
  type: way
  amenity_type: place_of_worship
- id: 449624545
  name: Masjid Baitul Ghofur
  alt_name: []
  latitude: -332155.5829866491
  longitude: -88630.77802234223
  type: way
  amenity_type: place_of_worship
- id: 449624576
  name: Gereja Kristen Jawi Wetan
  alt_name: []
  latitude: -7.265257670185202
  longitude: 112.75609599282723
  type: way
  amenity_type: place_of_worship
- id: 449624583
  name: Masjid Al Muchlisin
  alt_name: []
  latitude: -165462.86194679255
  longitude: -95594.16608207568
  type: way
  amenity_type: place_of_worship
- id: 449624584
  name: Masjid Al Qithaar
  alt_name: []
  latitude: -525606471722.6667
  longitude: -20573432234.666668
  type: way
  amenity_type: place_of_worship
- id: 449625441
  name: Masjid Ar Rahman
  alt_name: []
  latitude: -284297.6428090758
  longitude: -120511.90933780112
  type: way
  amenity_type: place_of_worship
- id: 449628543
  name: Masjid Al Fitrah
  alt_name: []
  latitude: -7.221914353226244
  longitude: 112.77003570047577
  type: way
  amenity_type: place_of_worship
- id: 449629343
  name: Masjid Al-Akbar
  alt_name: []
  latitude: -231398.11294114648
  longitude: 296955.7114246493
  type: way
  amenity_type: place_of_worship
- id: 449637944
  name: Masjid Fadillah
  alt_name: []
  latitude: -7.223041664418504
  longitude: 112.78199892114901
  type: way
  amenity_type: place_of_worship
- id: 449639957
  name: GBT Pniel
  alt_name: []
  latitude: -7.256333416840426
  longitude: 112.74151932382331
  type: way
  amenity_type: place_of_worship
- id: 449639958
  name: Gereja Kristus Radja Damai
  alt_name: []
  latitude: -7.473529594559734
  longitude: 112.5848840548437
  type: way
  amenity_type: place_of_worship
- id: 449639968
  name: Rumah Suci Budha
  alt_name: []
  latitude: 11699842.74874662
  longitude: 4394725.5243940735
  type: way
  amenity_type: place_of_worship
- id: 449640192
  name: Gereja Masehi Advent Hari Ketujuh
  alt_name: []
  latitude: -5.350275900313994
  longitude: 112.80186263298909
  type: way
  amenity_type: place_of_worship
- id: 449647019
  name: GEREJA KRISTEN JAWI WETAN
  alt_name: []
  latitude: 737888.949073563
  longitude: 4404.773559768705
  type: way
  amenity_type: place_of_worship
- id: 449647021
  name: Masjid Al Amin
  alt_name: []
  latitude: -5.943184230243216
  longitude: 112.79998256637788
  type: way
  amenity_type: place_of_worship
- id: 449647025
  name: Masjid Al Mudzakkir
  alt_name: []
  latitude: -7.330921691470445
  longitude: 112.7540269558505
  type: way
  amenity_type: place_of_worship
- id: 449647215
  name: Masjid Sabilul Muttaqin
  alt_name: []
  latitude: -266772.165779692
  longitude: -83430.20873907501
  type: way
  amenity_type: place_of_worship
- id: 449648350
  name: Masjid Al Madinah
  alt_name: []
  latitude: -7.351590828023644
  longitude: 112.75593136774975
  type: way
  amenity_type: place_of_worship
- id: 449648353
  name: Masjid Al Istiqomah
  alt_name: []
  latitude: -7.2787926695230984
  longitude: 112.75686439815563
  type: way
  amenity_type: place_of_worship
- id: 449649414
  name: Gereja Kristen Indonesia
  alt_name: []
  latitude: -7.28858116737664
  longitude: 112.7573655752045
  type: way
  amenity_type: place_of_worship
- id: 449649419
  name: Masjid Al Huda
  alt_name: []
  latitude: -7.297893708960667
  longitude: 112.75109972509463
  type: way
  amenity_type: place_of_worship
- id: 449649421
  name: Masjid Jami Al Jihad
  alt_name: []
  latitude: 677103.8130540302
  longitude: 539765.2038725723
  type: way
  amenity_type: place_of_worship
- id: 449650107
  name: Vihara Buddha Maitreya Sinar Purnama
  alt_name: []
  latitude: -7.271388736989497
  longitude: 112.72997972773182
  type: way
  amenity_type: place_of_worship
- id: 449650227
  name: Gereja Pantekosta Jemaat Immanuel
  alt_name: []
  latitude: -7.2398038841092625
  longitude: 112.73208256669191
  type: way
  amenity_type: place_of_worship
- id: 449651026
  name: Masjid An Nur
  alt_name: []
  latitude: -7.433410298751313
  longitude: 112.72882365406487
  type: way
  amenity_type: place_of_worship
- id: 449652656
  name: Masjid Shiroothol Mustaqim
  alt_name: []
  latitude: -7.221998989206462
  longitude: 112.77465987269746
  type: way
  amenity_type: place_of_worship
- id: 449661027
  name: Masjid Al Mujahidun
  alt_name: []
  latitude: 172984.7357415299
  longitude: -371998.7662432966
  type: way
  amenity_type: place_of_worship
- id: 449662088
  name: Masjid Peneleh
  alt_name: []
  latitude: -7.253280658875791
  longitude: 112.73846194010135
  type: way
  amenity_type: place_of_worship
- id: 449662101
  name: Masjid Al Munir
  alt_name: []
  latitude: -7.241330730311605
  longitude: 112.75877718135912
  type: way
  amenity_type: place_of_worship
- id: 449676301
  name: Masjid Nurul Iman
  alt_name: []
  latitude: 223264.73618602907
  longitude: 32033.933835163545
  type: way
  amenity_type: place_of_worship
- id: 449676302
  name: Masjid Syuhada' Kebangsreng
  alt_name: []
  latitude: -1191196.9492884446
  longitude: -641825.2198330781
  type: way
  amenity_type: place_of_worship
- id: 449678091
  name: Masjid Genteng
  alt_name: []
  latitude: -7.2426746657868355
  longitude: 112.74588154200801
  type: way
  amenity_type: place_of_worship
- id: 449784755
  name: Gereja Gloria
  alt_name: []
  latitude: 45235557706.666664
  longitude: -180242711722.66666
  type: way
  amenity_type: place_of_worship
- id: 449792122
  name: Masjid An Nahar
  alt_name: []
  latitude: 79349.47739289791
  longitude: 2928.662620921709
  type: way
  amenity_type: place_of_worship
- id: 449792761
  name: Masjid Al Muchtar
  alt_name: []
  latitude: -6.856748572568853
  longitude: 112.79448480001447
  type: way
  amenity_type: place_of_worship
- id: 449792916
  name: Gereja Immanuel
  alt_name: []
  latitude: -7.255532968329559
  longitude: 112.7607567852073
  type: way
  amenity_type: place_of_worship
- id: 449798745
  name: Masjid As Salam
  alt_name: []
  latitude: -7.256864949511071
  longitude: 112.74971216240073
  type: way
  amenity_type: place_of_worship
- id: 449809892
  name: Masjid Raudhatul Falakh
  alt_name: []
  latitude: -94990132.75055188
  longitude: 6606844.785871965
  type: way
  amenity_type: place_of_worship
- id: 449815581
  name: Masjid Al Abror
  alt_name: []
  latitude: -7.235654323340767
  longitude: 112.75301612658616
  type: way
  amenity_type: place_of_worship
- id: 449816081
  name: Masjid Al-Mustaqim
  alt_name: []
  latitude: -7.2346920495541704
  longitude: 112.7496900890932
  type: way
  amenity_type: place_of_worship
- id: 449816111
  name: Masjid Darul Hijrah
  alt_name: []
  latitude: -7.232186293321112
  longitude: 112.75147178190453
  type: way
  amenity_type: place_of_worship
- id: 449816330
  name: Masjid Baiturrahman
  alt_name: []
  latitude: -7.278372096353702
  longitude: 112.75066798357724
  type: way
  amenity_type: place_of_worship
- id: 449817016
  name: Masjid Nurul-Hidayah
  alt_name: []
  latitude: -7.17115616307769
  longitude: 112.79065510512885
  type: way
  amenity_type: place_of_worship
- id: 449818780
  name: Masjid Miftahus Sholeh
  alt_name: []
  latitude: 305145.1955655958
  longitude: 20684.8188833558
  type: way
  amenity_type: place_of_worship
- id: 449823955
  name: Masjid Nurul Huda Syafi'i
  alt_name: []
  latitude: -7.131378999450273
  longitude: 112.81452381632013
  type: way
  amenity_type: place_of_worship
- id: 449826528
  name: Masjid Wachid Hasjim
  alt_name: []
  latitude: -7.448557367103706
  longitude: 112.69212660087013
  type: way
  amenity_type: place_of_worship
- id: 449827453
  name: Klenteng Boen Bio
  alt_name: []
  latitude: -388878.2362092493
  longitude: -103668.22489474347
  type: way
  amenity_type: place_of_worship
- id: 449827933
  name: Masjid Al-Jihad
  alt_name: []
  latitude: -7.279199895900884
  longitude: 112.22086738735334
  type: way
  amenity_type: place_of_worship
- id: 449829025
  name: Masjid Al Muhajirin
  alt_name: []
  latitude: -7.256147536124442
  longitude: 112.74852248482809
  type: way
  amenity_type: place_of_worship
- id: 449830893
  name: Masjid Al Fadhilah
  alt_name: []
  latitude: 288411.57122484146
  longitude: -710685.886209919
  type: way
  amenity_type: place_of_worship
- id: 449832074
  name: Masjid Darul Arqom
  alt_name: []
  latitude: -7.231091449999999
  longitude: 112.75029870000002
  type: way
  amenity_type: place_of_worship
- id: 449832254
  name: Masjid Raudlotus Sholihin
  alt_name: []
  latitude: -7.226113156949504
  longitude: 112.74671821958006
  type: way
  amenity_type: place_of_worship
- id: 449834811
  name: Masjid At Taqwa
  alt_name: []
  latitude: -7.80418166921145
  longitude: 112.74272306053206
  type: way
  amenity_type: place_of_worship
- id: 449835802
  name: Masjid Khalid Bin Walid
  alt_name: []
  latitude: -7.276641600000001
  longitude: 112.73076325
  type: way
  amenity_type: place_of_worship
- id: 449835806
  name: Masjid Nurul Hidayah
  alt_name: []
  latitude: -7.277343019890914
  longitude: 112.73614455862625
  type: way
  amenity_type: place_of_worship
- id: 449835808
  name: Masjid Nurul Huda
  alt_name: []
  latitude: -7.509497024811379
  longitude: 112.70611186653763
  type: way
  amenity_type: place_of_worship
- id: 449835897
  name: Masjid Muttaqien
  alt_name: []
  latitude: -7.281380063898129
  longitude: 112.7517539179587
  type: way
  amenity_type: place_of_worship
- id: 449838319
  name: Masjid Plampitan
  alt_name: []
  latitude: -7.272041629595654
  longitude: 112.73287840475918
  type: way
  amenity_type: place_of_worship
- id: 449843918
  name: Masjid Al Fattah
  alt_name: []
  latitude: 38300347.35664172
  longitude: 9909011.832203142
  type: way
  amenity_type: place_of_worship
- id: 450292959
  name: Masjid Al Furqon
  alt_name: []
  latitude: -7.030229390133443
  longitude: 112.81809713286515
  type: way
  amenity_type: place_of_worship
- id: 450293642
  name: Gereja Bethel Ternakel
  alt_name: []
  latitude: -7.260258334594685
  longitude: 112.76357402259771
  type: way
  amenity_type: place_of_worship
- id: 450295243
  name: Masjid Al-Hidayah
  alt_name: []
  latitude: -7.247592631316077
  longitude: 112.77815469867068
  type: way
  amenity_type: place_of_worship
- id: 450295250
  name: Gereja Shalom Immanuel
  alt_name: []
  latitude: -460259.24888398236
  longitude: -189904.1463117333
  type: way
  amenity_type: place_of_worship
- id: 450296153
  name: Masjid Nasrullah
  alt_name: []
  latitude: -7.2231796
  longitude: 112.76862765
  type: way
  amenity_type: place_of_worship
- id: 450307281
  name: Klenteng Ban Swie
  alt_name: []
  latitude: -7.177794429658319
  longitude: 112.74244975247596
  type: way
  amenity_type: place_of_worship
- id: 450315801
  name: Masjid Al-Muklisin
  alt_name: []
  latitude: -7.2991378000000005
  longitude: 112.80021774999999
  type: way
  amenity_type: place_of_worship
- id: 450316611
  name: Masjid Assalafiyah
  alt_name: []
  latitude: -7.319905055451339
  longitude: 112.77588983476136
  type: way
  amenity_type: place_of_worship
- id: 450316612
  name: Masjid Baitul Mu'minin
  alt_name: []
  latitude: -5.721616768490293
  longitude: 112.91127203298622
  type: way
  amenity_type: place_of_worship
- id: 450316613
  name: Masjid SMP Negeri 23 Surabaya
  alt_name: []
  latitude: -176499921.97516435
  longitude: 7076760.216216216
  type: way
  amenity_type: place_of_worship
- id: 450317748
  name: Masjid Al Hikmah
  alt_name: []
  latitude: 345083624410.6667
  longitude: 8009004544.0
  type: way
  amenity_type: place_of_worship
- id: 450318402
  name: Masjid Al Ikhlas Dian Regency
  alt_name: []
  latitude: -6.328505445537598
  longitude: 112.92291593430843
  type: way
  amenity_type: place_of_worship
- id: 450318403
  name: Masjid Al Qomariyah
  alt_name: []
  latitude: -7.437603172846739
  longitude: 112.76275923303328
  type: way
  amenity_type: place_of_worship
- id: 450318859
  name: Masjid Barkil Qiyarah
  alt_name: []
  latitude: 396425.97179608385
  longitude: 94846.81980831358
  type: way
  amenity_type: place_of_worship
- id: 450320092
  name: Masjid Umar
  alt_name: []
  latitude: -75697790.71088898
  longitude: 3822291.45297592
  type: way
  amenity_type: place_of_worship
- id: 450507056
  name: Gereja Kristen Jawi Wetan Jemaat Mulyosari
  alt_name: []
  latitude: -7.2628608
  longitude: 112.7981627
  type: way
  amenity_type: place_of_worship
- id: 450507061
  name: Masjid Al Manar
  alt_name: []
  latitude: -7.263690107065744
  longitude: 112.79632295380628
  type: way
  amenity_type: place_of_worship
- id: 450507062
  name: Masjid Alazka
  alt_name: []
  latitude: -7.266965909013782
  longitude: 112.7989153011662
  type: way
  amenity_type: place_of_worship
- id: 450507063
  name: Masjid An Nur
  alt_name: []
  latitude: -7.342049822628937
  longitude: 112.79144751862303
  type: way
  amenity_type: place_of_worship
- id: 450507064
  name: Masjid Babussalam
  alt_name: []
  latitude: 633153.8089912785
  longitude: 245788.29525390727
  type: way
  amenity_type: place_of_worship
- id: 450507065
  name: Masjid Baitul Makmur
  alt_name: []
  latitude: -7.258869799999999
  longitude: 112.79533
  type: way
  amenity_type: place_of_worship
- id: 450509187
  name: Masjid Manarul Islam
  alt_name: []
  latitude: -852827929.7528557
  longitude: -7608761.021806854
  type: way
  amenity_type: place_of_worship
- id: 450509409
  name: Masjid Daarus Salam
  alt_name: []
  latitude: -7.282166599999999
  longitude: 112.75511925
  type: way
  amenity_type: place_of_worship
- id: 450512928
  name: Hong Tiek Hian
  alt_name: []
  latitude: -7.237419771306005
  longitude: 112.74390505613326
  type: way
  amenity_type: place_of_worship
- id: 450513385
  name: Masjid Al Jihad
  alt_name: []
  latitude: 186194.3487036125
  longitude: 3742.830393804717
  type: way
  amenity_type: place_of_worship
- id: 450515834
  name: Masjid Riyadhus Sholihin
  alt_name: []
  latitude: -7.162270977922527
  longitude: 112.7696163744299
  type: way
  amenity_type: place_of_worship
- id: 450516333
  name: Masjid Al Ikhlas
  alt_name: []
  latitude: -7.179259697064368
  longitude: 112.781996205291
  type: way
  amenity_type: place_of_worship
- id: 450517418
  name: Masjid Riyadhul Muslimin
  alt_name: []
  latitude: -7.213557347241799
  longitude: 112.76031152273399
  type: way
  amenity_type: place_of_worship
- id: 450519109
  name: Masjid Al Ikhlas
  alt_name: []
  latitude: -7.366140175800634
  longitude: 112.74700802612038
  type: way
  amenity_type: place_of_worship
- id: 450521468
  name: Masjid Al-Islam
  alt_name: []
  latitude: -7.263364997599344
  longitude: 112.76319406841165
  type: way
  amenity_type: place_of_worship
- id: 450532572
  name: Masjid Awwabin
  alt_name: []
  latitude: -7.257859634661977
  longitude: 112.74619214362217
  type: way
  amenity_type: place_of_worship
- id: 450536537
  name: Masjid Baitul Shiddiiq
  alt_name: []
  latitude: -26814837.09090909
  longitude: -7960988.90729783
  type: way
  amenity_type: place_of_worship
- id: 450536538
  name: Masjid Subulussalam
  alt_name: []
  latitude: -7.2151720311137035
  longitude: 112.77123149991192
  type: way
  amenity_type: place_of_worship
- id: 450537995
  name: Masjid AL-HIDAYAH
  alt_name: []
  latitude: -7.279686999999999
  longitude: 112.76073925
  type: way
  amenity_type: place_of_worship
- id: 450540147
  name: Masjid Ar-Rahman
  alt_name: []
  latitude: -7.137769223783423
  longitude: 112.77533482081832
  type: way
  amenity_type: place_of_worship
- id: 450540252
  name: Masjid Sabillul Muhadjah
  alt_name: []
  latitude: -7.226681267509163
  longitude: 112.75416998198163
  type: way
  amenity_type: place_of_worship
- id: 450549360
  name: Masjid Al Mursyiden
  alt_name: []
  latitude: -7.007490991232411
  longitude: 112.89135815899833
  type: way
  amenity_type: place_of_worship
- id: 450553777
  name: Masjid Bustanul Mu'minun
  alt_name: []
  latitude: -7.224437613231712
  longitude: 112.75554315970577
  type: way
  amenity_type: place_of_worship
- id: 450553910
  name: Masjid At-Taqwa
  alt_name: []
  latitude: -7.224440270993577
  longitude: 112.75622524987294
  type: way
  amenity_type: place_of_worship
- id: 450554520
  name: Masjid Langgar Waqaf Sentono Botoputih
  alt_name: []
  latitude: -7.269029778992039
  longitude: 112.72531241537742
  type: way
  amenity_type: place_of_worship
- id: 450554561
  name: Masjid Ampel Goebah
  alt_name: []
  latitude: -7.234005931534112
  longitude: 112.741675135575
  type: way
  amenity_type: place_of_worship
- id: 450689437
  name: Masjid Serang
  alt_name: []
  latitude: -7.232985404114588
  longitude: 112.74027210872151
  type: way
  amenity_type: place_of_worship
- id: 450692728
  name: Masjid Darussalam
  alt_name: []
  latitude: -7.1103413933506285
  longitude: 112.75447728540344
  type: way
  amenity_type: place_of_worship
- id: 450693183
  name: Masjid Ar Raudhoh
  alt_name: []
  latitude: -7.291739491800925
  longitude: 112.72833211216218
  type: way
  amenity_type: place_of_worship
- id: 450693782
  name: Masjid Agung Sunan Ampel
  alt_name: []
  latitude: -7.228860931778963
  longitude: 112.74298318052247
  type: way
  amenity_type: place_of_worship
- id: 450696438
  name: Masjid Roudlotut Taaibin
  alt_name: []
  latitude: -7.269660301164428
  longitude: 112.73012434862332
  type: way
  amenity_type: place_of_worship
- id: 450697651
  name: Masjid Al Ikhsan
  alt_name: []
  latitude: -7.220913586000916
  longitude: 112.75362117178985
  type: way
  amenity_type: place_of_worship
- id: 450698649
  name: Masjid Al Ihsan
  alt_name: []
  latitude: -7.261553449999999
  longitude: 112.7874973
  type: way
  amenity_type: place_of_worship
- id: 450698650
  name: Masjid Baiturrohim
  alt_name: []
  latitude: -7.261143197447404
  longitude: 112.78958869856767
  type: way
  amenity_type: place_of_worship
- id: 450698651
  name: Masjid Salman Al Farisi
  alt_name: []
  latitude: -6.847548179188752
  longitude: 112.89750250065003
  type: way
  amenity_type: place_of_worship
- id: 450698652
  name: Masjid Thariqul Jannah
  alt_name: []
  latitude: -7.063209388283134
  longitude: 112.83392018096211
  type: way
  amenity_type: place_of_worship
- id: 450713014
  name: Masjid Baitul Jabbar
  alt_name: []
  latitude: -7.181747277048892
  longitude: 112.80930615015116
  type: way
  amenity_type: place_of_worship
- id: 450718101
  name: Gereja GPPS
  alt_name: []
  latitude: -175415095952.0
  longitude: 35014026325.333336
  type: way
  amenity_type: place_of_worship
- id: 450726057
  name: GBI Jemaat Kasih
  alt_name: []
  latitude: -59478352.11328976
  longitude: -10962751.107625272
  type: way
  amenity_type: place_of_worship
- id: 450728817
  name: Masjid Abdussalam, Perum. Semampir Praja
  alt_name: []
  latitude: -7.307756649999999
  longitude: 112.78599204999999
  type: way
  amenity_type: place_of_worship
- id: 450772002
  name: Masjid Amanah
  alt_name: []
  latitude: -7.223363442648826
  longitude: 112.79324796664542
  type: way
  amenity_type: place_of_worship
- id: 450914320
  name: Gereja Kristen Reformasi Indonesia
  alt_name: []
  latitude: 291918.42751145887
  longitude: 198304.49434728659
  type: way
  amenity_type: place_of_worship
- id: 450914322
  name: Masjid Al Hidayah
  alt_name: []
  latitude: -279926.95284820127
  longitude: -143165.5168035067
  type: way
  amenity_type: place_of_worship
- id: 450914323
  name: Masjid Baitul Haq
  alt_name: []
  latitude: -7.384100771326472
  longitude: 112.73041716732075
  type: way
  amenity_type: place_of_worship
- id: 450914324
  name: Masjid Baitul Muttaqin
  alt_name: []
  latitude: -7.297353399999999
  longitude: 112.75021469999999
  type: way
  amenity_type: place_of_worship
- id: 450914325
  name: Masjid Hidayatullah
  alt_name: []
  latitude: -7.251139297344903
  longitude: 112.76821600642117
  type: way
  amenity_type: place_of_worship
- id: 450914326
  name: Masjid Istiqbal
  alt_name: []
  latitude: -7.295621510157703
  longitude: 112.7464964250665
  type: way
  amenity_type: place_of_worship
- id: 450914327
  name: Masjid Nurul Islam
  alt_name: []
  latitude: -7.3027191
  longitude: 112.75067295
  type: way
  amenity_type: place_of_worship
- id: 450914328
  name: Masjid Raudlatul Falah
  alt_name: []
  latitude: -7.467841346571757
  longitude: 112.64384699032762
  type: way
  amenity_type: place_of_worship
- id: 450921067
  name: Masjid Farma Wartah
  alt_name: []
  latitude: -6227651.072431588
  longitude: -2022197.3958346185
  type: way
  amenity_type: place_of_worship
- id: 450927052
  name: Gereja GPPS Tambak Madu
  alt_name: []
  latitude: -7.247161038203755
  longitude: 112.75502772552753
  type: way
  amenity_type: place_of_worship
- id: 450927053
  name: Gereja Pantekosta
  alt_name: []
  latitude: 62826053584.0
  longitude: -145350814122.66666
  type: way
  amenity_type: place_of_worship
- id: 450927069
  name: Masjid Al Jihad
  alt_name: []
  latitude: -7.243458496957687
  longitude: 112.75788995401645
  type: way
  amenity_type: place_of_worship
- id: 450927463
  name: Masjid Nurul Ihsan
  alt_name: []
  latitude: -7.2422534381494215
  longitude: 112.74090002452364
  type: way
  amenity_type: place_of_worship
- id: 450930011
  name: Yayasan Rukun Sekawan
  alt_name: []
  latitude: -7.210619698327801
  longitude: 112.74614047639275
  type: way
  amenity_type: place_of_worship
- id: 450931432
  name: Gerja Kristen Abdiel Gloria
  alt_name: []
  latitude: -7.238559151558821
  longitude: 112.74281573740289
  type: way
  amenity_type: place_of_worship
- id: 450931543
  name: Gereja Kristus Tuhan
  alt_name: []
  latitude: -7.2374076488715176
  longitude: 112.74294287492295
  type: way
  amenity_type: place_of_worship
- id: 450944795
  name: Masjid Assegaf
  alt_name: []
  latitude: -7.236453272594786
  longitude: 112.73950142358741
  type: way
  amenity_type: place_of_worship
- id: 450956794
  name: Masjid Sabilul Mutadin
  alt_name: []
  latitude: -7.1927261958489375
  longitude: 112.7342851175791
  type: way
  amenity_type: place_of_worship
- id: 450956811
  name: Masjid Makarimal Achlaq
  alt_name: []
  latitude: -7.1602038726919695
  longitude: 112.747321216067
  type: way
  amenity_type: place_of_worship
- id: 450958725
  name: Masjid Al-Amin
  alt_name: []
  latitude: -7.308559980493681
  longitude: 112.77984725542693
  type: way
  amenity_type: place_of_worship
- id: 450958727
  name: Masjid Sholihul Amin
  alt_name: []
  latitude: -7.30497405
  longitude: 112.7786167
  type: way
  amenity_type: place_of_worship
- id: 450968415
  name: Masjid Nashrulloh
  alt_name: []
  latitude: -7.633165513320646
  longitude: 112.70441850109103
  type: way
  amenity_type: place_of_worship
- id: 450968416
  name: Masjid Nuhur Al Ikhlas
  alt_name: []
  latitude: -7.30863665
  longitude: 112.7827001
  type: way
  amenity_type: place_of_worship
- id: 450968466
  name: Masjid Al Ikhlas
  alt_name: []
  latitude: -7.245755845626081
  longitude: 112.75648764397296
  type: way
  amenity_type: place_of_worship
- id: 450973148
  name: Masjid Nur Ukhuwah Islamiyah
  alt_name: []
  latitude: -7.21075725
  longitude: 112.73496554999998
  type: way
  amenity_type: place_of_worship
- id: 450988745
  name: Gereja Katolik Santo Yohanes Pemandi
  alt_name: []
  latitude: -6.809128769502018
  longitude: 112.84204127895319
  type: way
  amenity_type: place_of_worship
- id: 450988766
  name: Masjid Bahrul Ulum
  alt_name: []
  latitude: -7.304705023765332
  longitude: 112.74690354407608
  type: way
  amenity_type: place_of_worship
- id: 450988771
  name: Masjid Al Ikhlas
  alt_name: []
  latitude: -7.455081228752362
  longitude: 112.70159708039483
  type: way
  amenity_type: place_of_worship
- id: 450988772
  name: Masjid As Shihah
  alt_name: []
  latitude: -7.3107305651731345
  longitude: 112.73843749578658
  type: way
  amenity_type: place_of_worship
- id: 450988773
  name: Masjid Hidayatullah
  alt_name: []
  latitude: -7.305321450000001
  longitude: 112.7417654
  type: way
  amenity_type: place_of_worship
- id: 450988774
  name: Masjid Nurul Huda
  alt_name: []
  latitude: -7.342823535609069
  longitude: 112.74514219064565
  type: way
  amenity_type: place_of_worship
- id: 450988775
  name: Masjid Sabilillah
  alt_name: []
  latitude: -7.303434280237123
  longitude: 112.7374035070039
  type: way
  amenity_type: place_of_worship
- id: 451005786
  name: Gereja Pantekosta Indonesia
  alt_name: []
  latitude: 1111830.5732355097
  longitude: 996304.0492392018
  type: way
  amenity_type: place_of_worship
- id: 451090212
  name: Masjid Miftahul Jannah
  alt_name: []
  latitude: -7.286622398970515
  longitude: 112.78776949985965
  type: way
  amenity_type: place_of_worship
- id: 451271269
  name: Gereja Katolik Ratu Pencintai Damai
  alt_name: []
  latitude: -7.232530377366312
  longitude: 112.76526069019893
  type: way
  amenity_type: place_of_worship
- id: 451271283
  name: Masjid Al Muttaqin
  alt_name: []
  latitude: -7.227252935411678
  longitude: 112.78141339260668
  type: way
  amenity_type: place_of_worship
- id: 451271288
  name: Masjid As Sidiq
  alt_name: []
  latitude: -7.229589224753642
  longitude: 112.77448418715223
  type: way
  amenity_type: place_of_worship
- id: 451275118
  name: Masjid Al Amanah
  alt_name: []
  latitude: -7.069088574464366
  longitude: 112.8131202386686
  type: way
  amenity_type: place_of_worship
- id: 451275119
  name: Masjid Attinah
  alt_name: []
  latitude: -8.016540481881677
  longitude: 112.71173616597422
  type: way
  amenity_type: place_of_worship
- id: 451275120
  name: Masjid Subulussalam
  alt_name: []
  latitude: -14840964.35845303
  longitude: -7812365.135523928
  type: way
  amenity_type: place_of_worship
- id: 451275448
  name: Masjid Ittihadul Muslimin
  alt_name: []
  latitude: -7.2220654345799264
  longitude: 112.75691514618691
  type: way
  amenity_type: place_of_worship
- id: 451275586
  name: Masjid Ukhuwah
  alt_name: []
  latitude: -7.166987437977591
  longitude: 112.769209916715
  type: way
  amenity_type: place_of_worship
- id: 451283933
  name: Masjid At Taqwa
  alt_name: []
  latitude: -7.23193389923112
  longitude: 112.76526286208282
  type: way
  amenity_type: place_of_worship
- id: 451283952
  name: Masjid Ar Rahmah
  alt_name: []
  latitude: -7.223647244850586
  longitude: 112.78289337776822
  type: way
  amenity_type: place_of_worship
- id: 451286554
  name: G.B.T Kristen Penebus
  alt_name: []
  latitude: -7.282097544264569
  longitude: 112.73900117247234
  type: way
  amenity_type: place_of_worship
- id: 451286561
  name: Gereja Utusan Pantekosta di Indonesia
  alt_name: []
  latitude: -7.318064702540739
  longitude: 112.72113687419093
  type: way
  amenity_type: place_of_worship
- id: 451286571
  name: Juncin Kiung
  alt_name: []
  latitude: -863896.5338384096
  longitude: 515555.94896092755
  type: way
  amenity_type: place_of_worship
- id: 451286574
  name: Masjid Al-Hikmah
  alt_name: []
  latitude: 463168.0849632637
  longitude: 88057.4217408038
  type: way
  amenity_type: place_of_worship
- id: 451286575
  name: Masjid Al-Ma'mur
  alt_name: []
  latitude: -9.010727406594363
  longitude: 112.47167426405476
  type: way
  amenity_type: place_of_worship
- id: 451286576
  name: Masjid Sabilal Muhtadin
  alt_name: []
  latitude: -7.283182162275198
  longitude: 112.73228610892629
  type: way
  amenity_type: place_of_worship
- id: 451286580
  name: T.I.T.D. HONG SAN KO TEE
  alt_name: []
  latitude: -7.278010459084832
  longitude: 112.73926836103927
  type: way
  amenity_type: place_of_worship
- id: 451291151
  name: GKJW Jemaat Jambangan
  alt_name: []
  latitude: 415309348437.3333
  longitude: 111581860181.33333
  type: way
  amenity_type: place_of_worship
- id: 451291280
  name: Masjid Amir Mukti
  alt_name: []
  latitude: -7.289395836224
  longitude: 112.71689156648844
  type: way
  amenity_type: place_of_worship
- id: 451291281
  name: Masjid An Nur
  alt_name: []
  latitude: -7.323443494234545
  longitude: 112.71368675364614
  type: way
  amenity_type: place_of_worship
- id: 451292340
  name: Musholla RS. Islam Surabaya
  alt_name: []
  latitude: -7.278233802196728
  longitude: 112.75084895655989
  type: way
  amenity_type: place_of_worship
- id: 451293430
  name: Masjid Jami' Taqwiyatul Muslimin
  alt_name: []
  latitude: -7.2205943449026595
  longitude: 112.75215685634474
  type: way
  amenity_type: place_of_worship
- id: 451294359
  name: Masjid Nurul Jannah
  alt_name: []
  latitude: -7.214057149999999
  longitude: 112.7361736
  type: way
  amenity_type: place_of_worship
- id: 451295376
  name: Gereja Bethel Indonesia Anugerah Sulung
  alt_name: []
  latitude: -7.137597036342212
  longitude: 112.82445790910499
  type: way
  amenity_type: place_of_worship
- id: 451295389
  name: Masjid Langgal Ath Toyyibah
  alt_name: []
  latitude: -7.282816071564923
  longitude: 112.74485252101302
  type: way
  amenity_type: place_of_worship
- id: 451300766
  name: Masjid Darus Salam
  alt_name: []
  latitude: -7.329601795340141
  longitude: 112.72151467127479
  type: way
  amenity_type: place_of_worship
- id: 451301884
  name: Masjid Roudhotul Jannah
  alt_name: []
  latitude: -7.95351665800758
  longitude: 112.60763149909977
  type: way
  amenity_type: place_of_worship
- id: 451303179
  name: Masjid Al Hidayah
  alt_name: []
  latitude: -373208.347700323
  longitude: -207562.67733120042
  type: way
  amenity_type: place_of_worship
- id: 451303180
  name: Masjid Darussalam
  alt_name: []
  latitude: -7.3358236776605965
  longitude: 112.70519445501479
  type: way
  amenity_type: place_of_worship
- id: 451304617
  name: Masjid Al-Furqan
  alt_name: []
  latitude: -7.333364026776098
  longitude: 112.74880149230289
  type: way
  amenity_type: place_of_worship
- id: 451307800
  name: Masjid Mujahidin
  alt_name: []
  latitude: -7.406568687971952
  longitude: 112.57146519947582
  type: way
  amenity_type: place_of_worship
- id: 451310339
  name: Gereja Tota Cristhine Per Mariam
  alt_name: []
  latitude: -7.244393385170707
  longitude: 112.73388097578331
  type: way
  amenity_type: place_of_worship
- id: 451486231
  name: Masjid Miftahul Ittihad
  alt_name: []
  latitude: -7.242345710332301
  longitude: 112.72187507798984
  type: way
  amenity_type: place_of_worship
- id: 451487299
  name: Masjid Al Amin
  alt_name: []
  latitude: -301273.0839412704
  longitude: -73674.9914571115
  type: way
  amenity_type: place_of_worship
- id: 451489001
  name: Gereja Yesus Kristus
  alt_name: []
  latitude: -7.413541040990531
  longitude: 112.74422995179596
  type: way
  amenity_type: place_of_worship
- id: 451490312
  name: Masjid Ta'miriyah
  alt_name: []
  latitude: -7.242453518532913
  longitude: 112.73483781326536
  type: way
  amenity_type: place_of_worship
- id: 451492061
  name: Masjid Baitul Makmur
  alt_name: []
  latitude: -7.236218199999999
  longitude: 112.73145050000001
  type: way
  amenity_type: place_of_worship
- id: 451492221
  name: Masjid Nurul Iman
  alt_name: []
  latitude: 292777766997.3333
  longitude: 131110115157.33333
  type: way
  amenity_type: place_of_worship
- id: 451494168
  name: Masjid Al Hikmah
  alt_name: []
  latitude: -193564.67643419473
  longitude: -36660.7629830214
  type: way
  amenity_type: place_of_worship
- id: 451494344
  name: Masjid Al Islam
  alt_name: []
  latitude: -7.6256499470963055
  longitude: 112.57744024814926
  type: way
  amenity_type: place_of_worship
- id: 451495265
  name: Masjid Miftachul Jannah
  alt_name: []
  latitude: -7.222997006373824
  longitude: 112.59279790035862
  type: way
  amenity_type: place_of_worship
- id: 451495329
  name: Gereja Protestan Genta Kasih
  alt_name: []
  latitude: -7.46452608831521
  longitude: 112.76793052089224
  type: way
  amenity_type: place_of_worship
- id: 451500395
  name: Masjid Romokalisari
  alt_name: []
  latitude: -7.228045597347941
  longitude: 112.62969426389269
  type: way
  amenity_type: place_of_worship
- id: 451500612
  name: Masjid Baiturrahman
  alt_name: []
  latitude: 43535826.74904547
  longitude: 10330649.591114197
  type: way
  amenity_type: place_of_worship
- id: 451500920
  name: Masjid Al Mujahirin
  alt_name: []
  latitude: -7.22365995
  longitude: 112.59775375000001
  type: way
  amenity_type: place_of_worship
- id: 451501915
  name: GPDL Haleluya Rungkut
  alt_name: []
  latitude: -837164683.3096927
  longitude: -11364113.550827423
  type: way
  amenity_type: place_of_worship
- id: 451502285
  name: Gereja Kristen Perjanjian Baru
  alt_name: []
  latitude: -7.265340682181298
  longitude: 112.61090661665517
  type: way
  amenity_type: place_of_worship
- id: 451502367
  name: GKPB Masa Depan Cerah Putat Gede
  alt_name: []
  latitude: -7.29071965318951
  longitude: 112.69743182838845
  type: way
  amenity_type: place_of_worship
- id: 451503718
  name: G.B.T Kristus Pengasih Kutisari Indah
  alt_name: []
  latitude: -1292544.943632255
  longitude: -578768.3515871331
  type: way
  amenity_type: place_of_worship
- id: 451504143
  name: Masjid Al Islamiyah
  alt_name: []
  latitude: -7.259844685827418
  longitude: 112.58863172209375
  type: way
  amenity_type: place_of_worship
- id: 451504897
  name: Gereja Kristen Indonesia
  alt_name: []
  latitude: -7.3373926516483445
  longitude: 112.7535583454789
  type: way
  amenity_type: place_of_worship
- id: 451506648
  name: Masjid Nur Rohmah
  alt_name: []
  latitude: -7.235248022158647
  longitude: 112.7288719540167
  type: way
  amenity_type: place_of_worship
- id: 451509761
  name: Masjid Baitul Ma'mur
  alt_name: []
  latitude: 706465.1011138792
  longitude: 377036.9342310253
  type: way
  amenity_type: place_of_worship
- id: 451511424
  name: Masjid Baiturrohman
  alt_name: []
  latitude: -7.22628376491557
  longitude: 112.60077672633773
  type: way
  amenity_type: place_of_worship
- id: 451512332
  name: Masjid Rahmat
  alt_name: []
  latitude: -7.28195425
  longitude: 112.7296338
  type: way
  amenity_type: place_of_worship
- id: 451513973
  name: Masjid Al-Hikmah
  alt_name: []
  latitude: -7.194355389708016
  longitude: 112.6988262936486
  type: way
  amenity_type: place_of_worship
- id: 451515084
  name: Masjid baiturrahman
  alt_name: []
  latitude: -7.309851281595954
  longitude: 112.75656347312069
  type: way
  amenity_type: place_of_worship
- id: 451516161
  name: Masjid At Taubah
  alt_name: []
  latitude: -323040484693.3333
  longitude: -107388345344.0
  type: way
  amenity_type: place_of_worship
- id: 451520331
  name: Masjid Baitut Taqwa
  alt_name: []
  latitude: -31451976.470059037
  longitude: -12477090.581951082
  type: way
  amenity_type: place_of_worship
- id: 451523303
  name: Vihara Buddhayana
  alt_name: []
  latitude: -7.286624471585018
  longitude: 112.69830010673192
  type: way
  amenity_type: place_of_worship
- id: 451523713
  name: Masjid Al Maghfirah
  alt_name: []
  latitude: -7.32738205
  longitude: 112.77344405
  type: way
  amenity_type: place_of_worship
- id: 451524537
  name: Gereja Yesus Sejati
  alt_name: []
  latitude: -7.25631862786211
  longitude: 112.7264643825186
  type: way
  amenity_type: place_of_worship
- id: 451524569
  name: Gereja Albert
  alt_name: []
  latitude: -7.29590736901043
  longitude: 112.72356454763356
  type: way
  amenity_type: place_of_worship
- id: 451524714
  name: Masjid Ya'qub
  alt_name: []
  latitude: -7.220034553749925
  longitude: 112.72765161588218
  type: way
  amenity_type: place_of_worship
- id: 451527387
  name: Masjid Baitus Syukur
  alt_name: []
  latitude: -7.11941825014783
  longitude: 112.65554681327416
  type: way
  amenity_type: place_of_worship
- id: 451527968
  name: Masjid Nurul Ihsan
  alt_name: []
  latitude: -7.212276891716042
  longitude: 112.60907022570682
  type: way
  amenity_type: place_of_worship
- id: 451533221
  name: Masjid Al Huda
  alt_name: []
  latitude: -7.312520143490667
  longitude: 112.71620602520422
  type: way
  amenity_type: place_of_worship
- id: 451533230
  name: Masjid At Taqwa
  alt_name: []
  latitude: -262541.53815900075
  longitude: -130208.07968925414
  type: way
  amenity_type: place_of_worship
- id: 451533233
  name: Masjid Baitul Haq
  alt_name: []
  latitude: -7.420647539557108
  longitude: 112.7021358748002
  type: way
  amenity_type: place_of_worship
- id: 451533234
  name: Masjid Jami' Al Hasan
  alt_name: []
  latitude: -7.244225462991602
  longitude: 112.73966391886161
  type: way
  amenity_type: place_of_worship
- id: 451533235
  name: Masjid Nurul Huda
  alt_name: []
  latitude: 15808094.358065706
  longitude: 3536386.97244874
  type: way
  amenity_type: place_of_worship
- id: 451533784
  name: Musholla Ar Rifa'i
  alt_name: []
  latitude: -7.386957970301206
  longitude: 112.77319655816852
  type: way
  amenity_type: place_of_worship
- id: 451533789
  name: Masjid Al Imaduddin
  alt_name: []
  latitude: -7.326410226259078
  longitude: 112.79851562169101
  type: way
  amenity_type: place_of_worship
- id: 451534867
  name: Masjid Darul Arqom
  alt_name: []
  latitude: -7.201022590125606
  longitude: 112.62892898722876
  type: way
  amenity_type: place_of_worship
- id: 451535770
  name: Masjid Hidayatullah
  alt_name: []
  latitude: -7.394288143494006
  longitude: 112.64138899761086
  type: way
  amenity_type: place_of_worship
- id: 451536977
  name: Musholla
  alt_name: []
  latitude: -7.259725599120248
  longitude: 112.72943219371922
  type: way
  amenity_type: place_of_worship
- id: 451541848
  name: Masjid As Sallam
  alt_name: []
  latitude: -7.323041850000001
  longitude: 112.71970980000002
  type: way
  amenity_type: place_of_worship
- id: 451550266
  name: Gereja Kristen Jawi Wetan
  alt_name: []
  latitude: -7.323774244224018
  longitude: 112.77462025182828
  type: way
  amenity_type: place_of_worship
- id: 451551528
  name: Masjid Al Ali
  alt_name: []
  latitude: -7.3211540500000005
  longitude: 112.76889025
  type: way
  amenity_type: place_of_worship
- id: 451573279
  name: Masjid As Syifa'
  alt_name: []
  latitude: -7.194492798197089
  longitude: 112.7531332945026
  type: way
  amenity_type: place_of_worship
- id: 451581767
  name: Masjid Al Mukhlis
  alt_name: []
  latitude: -7.275390763689411
  longitude: 112.7203045525532
  type: way
  amenity_type: place_of_worship
- id: 451586283
  name: Gereja Bethel Injil Sepenuh 'Yerusalem Baru'
  alt_name: []
  latitude: -7.271133818313942
  longitude: 112.73227434788089
  type: way
  amenity_type: place_of_worship
- id: 451586284
  name: Masjid Al ikhlas
  alt_name: []
  latitude: -7.367168692079027
  longitude: 112.69463845909775
  type: way
  amenity_type: place_of_worship
- id: 451586285
  name: Masjid Waqaf Maqbul
  alt_name: []
  latitude: -7.130632224907358
  longitude: 112.75502401265967
  type: way
  amenity_type: place_of_worship
- id: 451586295
  name: Masjid Nurul Falah
  alt_name: []
  latitude: -7.194768906039067
  longitude: 112.76633836414756
  type: way
  amenity_type: place_of_worship
- id: 451589323
  name: Masjid Al Hidayah
  alt_name: []
  latitude: -7.322979722806431
  longitude: 112.7732997594977
  type: way
  amenity_type: place_of_worship
- id: 451589962
  name: Gereja Kristen Kalam Kudus
  alt_name: []
  latitude: -7.243018052321241
  longitude: 112.73226996053022
  type: way
  amenity_type: place_of_worship
- id: 451592007
  name: Masjid Baitul Jannah
  alt_name: []
  latitude: -494650.19921053393
  longitude: -20204.306931767398
  type: way
  amenity_type: place_of_worship
- id: 451592008
  name: Masjid Baiturrahim
  alt_name: []
  latitude: -7.319214600000001
  longitude: 112.77936725000002
  type: way
  amenity_type: place_of_worship
- id: 451592425
  name: Masjid Al-Hidayah
  alt_name: []
  latitude: -6.411040678443036
  longitude: 113.03821641988273
  type: way
  amenity_type: place_of_worship
- id: 451598731
  name: Masjid Baitul Huda
  alt_name: []
  latitude: -7.243973
  longitude: 112.72984710000001
  type: way
  amenity_type: place_of_worship
- id: 451599922
  name: Masjid Baiturrozaq
  alt_name: []
  latitude: -7.332369945893315
  longitude: 112.75720777631905
  type: way
  amenity_type: place_of_worship
- id: 451622023
  name: Gereja Protestan (GPIB) Sejahtera
  alt_name: []
  latitude: -7.247801787120441
  longitude: 112.75330492524162
  type: way
  amenity_type: place_of_worship
- id: 451645229
  name: Gereja Kristen Abdiel Gloria Kota Satelit
  alt_name: []
  latitude: -7.28566122938623
  longitude: 112.70078704690327
  type: way
  amenity_type: place_of_worship
- id: 451649261
  name: Gereja GPIB.PNIEL
  alt_name: []
  latitude: -7.233959361185279
  longitude: 112.73134110615487
  type: way
  amenity_type: place_of_worship
- id: 451656374
  name: Masjid Jamin Kibar
  alt_name: []
  latitude: -134729389.2879046
  longitude: -13597143.223168654
  type: way
  amenity_type: place_of_worship
- id: 451657325
  name: Masjid Miftahul Jannah
  alt_name: []
  latitude: -7.217799978668888
  longitude: 112.73189492035078
  type: way
  amenity_type: place_of_worship
- id: 451658475
  name: Masjid Al Ikhlas
  alt_name: []
  latitude: 534847.1270160024
  longitude: 67555.66291040734
  type: way
  amenity_type: place_of_worship
- id: 451659231
  name: Masjid Khoirul Bariyah
  alt_name: []
  latitude: -7.067488369641896
  longitude: 112.76222123331466
  type: way
  amenity_type: place_of_worship
- id: 451660160
  name: Masjid Jendral Sudirman
  alt_name: []
  latitude: 15.907341515124696
  longitude: 112.62624563568228
  type: way
  amenity_type: place_of_worship
- id: 451660762
  name: Masjid Baitul Mukmin
  alt_name: []
  latitude: -6.717354893371884
  longitude: 112.9234074328232
  type: way
  amenity_type: place_of_worship
- id: 451660869
  name: Masjid Al Muttaqin
  alt_name: []
  latitude: -7.232097749999999
  longitude: 112.72045795
  type: way
  amenity_type: place_of_worship
- id: 451660919
  name: Masjid Baitut Taufik
  alt_name: []
  latitude: -7.232193155971151
  longitude: 112.72222958707518
  type: way
  amenity_type: place_of_worship
- id: 451661028
  name: Masjid Ar Ridwan
  alt_name: []
  latitude: 173962100.9062694
  longitude: 1573007.1756672875
  type: way
  amenity_type: place_of_worship
- id: 451661748
  name: Mahavihara dan Pusdiklat Buddha Maitreya
  alt_name: []
  latitude: -7.2764989486812865
  longitude: 112.71042984583808
  type: way
  amenity_type: place_of_worship
- id: 451661886
  name: Masjid Al Hidayah
  alt_name: []
  latitude: -263995.1507536167
  longitude: -70719.42706374155
  type: way
  amenity_type: place_of_worship
- id: 451661932
  name: Masjid Nurul Hidayah
  alt_name: []
  latitude: -7.335243840761851
  longitude: 112.70446493325883
  type: way
  amenity_type: place_of_worship
- id: 451661977
  name: Masjid Al Hilal
  alt_name: []
  latitude: -6.906094168157657
  longitude: 112.85824339838271
  type: way
  amenity_type: place_of_worship
- id: 451662912
  name: Masjid Baitul Huda
  alt_name: []
  latitude: -7.347719577859727
  longitude: 112.6077360866592
  type: way
  amenity_type: place_of_worship
- id: 451663662
  name: Masjid Nurul Iman
  alt_name: []
  latitude: -7.319022249996985
  longitude: 112.78492607199784
  type: way
  amenity_type: place_of_worship
- id: 451664122
  name: GPDI Bukit Mulia
  alt_name: []
  latitude: -7.2998885395325965
  longitude: 112.67585377584179
  type: way
  amenity_type: place_of_worship
- id: 451664142
  name: Masjid Al Hidayah
  alt_name: []
  latitude: -7.137613070814809
  longitude: 112.72826338822662
  type: way
  amenity_type: place_of_worship
- id: 451664271
  name: Masjid Darussalam
  alt_name: []
  latitude: -7.4245861852076525
  longitude: 112.66489695631466
  type: way
  amenity_type: place_of_worship
- id: 451664895
  name: Masjid Al Haq
  alt_name: []
  latitude: 125157568.04281892
  longitude: 16614830.60600654
  type: way
  amenity_type: place_of_worship
- id: 451665261
  name: Masjid Al Mufidah
  alt_name: []
  latitude: -7.252298896936478
  longitude: 112.75561674483531
  type: way
  amenity_type: place_of_worship
- id: 451667004
  name: Gereja Masehi Advent Hari Ketujuh Dukuh Kupang
  alt_name: []
  latitude: -7.358967201621372
  longitude: 112.68650121896165
  type: way
  amenity_type: place_of_worship
- id: 451669258
  name: Masjid SMP Negeri 14 Surabaya
  alt_name: []
  latitude: -7.239649213214065
  longitude: 112.60829413728906
  type: way
  amenity_type: place_of_worship
- id: 451670023
  name: Masjid At Taqwa
  alt_name: []
  latitude: 550853.0734676712
  longitude: 266268.50875286554
  type: way
  amenity_type: place_of_worship
- id: 451670553
  name: Masjid Nurul Muhibbin
  alt_name: []
  latitude: 293666.57380522107
  longitude: 134428.60385208047
  type: way
  amenity_type: place_of_worship
- id: 451671151
  name: Gereja Katolik St. Aloysius Gonzaga
  alt_name: []
  latitude: -7.268071714085025
  longitude: 112.69154647996092
  type: way
  amenity_type: place_of_worship
- id: 451672203
  name: Masjid Baiturrahman
  alt_name: []
  latitude: -5.825641578641092
  longitude: 112.68091149208601
  type: way
  amenity_type: place_of_worship
- id: 451672332
  name: Masjid Al Hijriyah
  alt_name: []
  latitude: -7.329729829736916
  longitude: 112.72006690327653
  type: way
  amenity_type: place_of_worship
- id: 451672377
  name: Gereja Katolik Santo Mikael
  alt_name: []
  latitude: -7.398668285636833
  longitude: 112.73371593419955
  type: way
