objects:
- id: 7219092
  name: Universitas Nadhlatul Ulama Surabaya
  alt_name: []
  latitude: -7.322593370217196
  longitude: 112.73916227978313
  type: relation
  amenity_type: university
- id: 8225816
  name: Universitas Airlangga
  alt_name: []
  latitude: -7.267546833338593
  longitude: 112.78443107999395
  type: relation
  amenity_type: university
- id: 70364905
  name: Universitas Hang Tuah
  alt_name: []
  latitude: -7.293076814282725
  longitude: 112.79334339693852
  type: way
  amenity_type: university
- id: 279576575
  name: Universitas Katolik Widya Mandala Surabaya
  alt_name: []
  latitude: -7.2815042709610225
  longitude: 112.74479159812951
  type: way
  amenity_type: university
- id: 307282096
  name: Diploma Teknik Sipil ITS
  alt_name: []
  latitude: -7.286695856063337
  longitude: 112.76389733807298
  type: way
  amenity_type: university
- id: 311044783
  name: Politeknik Pelayaran Surabaya
  alt_name: []
  latitude: -7.344495227775625
  longitude: 112.79563403918843
  type: way
  amenity_type: university
- id: 314745210
  name: Institut Teknologi Sepuluh Nopember
  alt_name:
  - ITS
  latitude: -7.282858902999984
  longitude: 112.79513353316325
  type: way
  amenity_type: university
- id: 320182776
  name: Kampus C Universitas Airlangga
  alt_name: []
  latitude: -7.26671545097052
  longitude: 112.78639353731018
  type: way
  amenity_type: university
- id: 344131999
  name: Universitas Negeri Surabaya
  alt_name:
  - Unesa
  latitude: -7.3009382622841
  longitude: 112.66960363075685
  type: way
  amenity_type: university
- id: 376921104
  name: Universitas Katolik Darma Cendika
  alt_name: []
  latitude: -7.291571725293178
  longitude: 112.78122384585289
  type: way
  amenity_type: university
- id: 429131451
  name: Universitas Surabaya
  alt_name:
  - Kampus Ngagel Universitas Surabaya
  latitude: -7.293173031951129
  longitude: 112.76132991372236
  type: way
  amenity_type: university
- id: 432849700
  name: Universitas Katolik Widya Mandala Surabaya
  alt_name: []
  latitude: -7.259932026600016
  longitude: 112.7729388088832
  type: way
  amenity_type: university
- id: 446524872
  name: Universitas Hang Tuah
  alt_name: []
  latitude: -7.311082450585372
  longitude: 112.73673859359911
  type: way
  amenity_type: university
- id: 447347929
  name: Universitas Kartini Surabaya
  alt_name: []
  latitude: -7.300760232128389
  longitude: 112.7624796420945
  type: way
  amenity_type: university
- id: 447607411
  name: La Salle College Wonokromo Surabaya
  alt_name: []
  latitude: -7.291341399999999
  longitude: 112.74169025
  type: way
  amenity_type: university
- id: 447637766
  name: STIESIA
  alt_name: []
  latitude: -7.289169831810877
  longitude: 112.76651891329576
  type: way
  amenity_type: university
- id: 448116445
  name: Institut Teknologi Adhi Tama Surabaya
  alt_name:
  - ITATS
  latitude: -7.290878412593914
  longitude: 112.77905751295413
  type: way
  amenity_type: university
- id: 448425067
  name: Aula Fakultas Kedokteran Universitas Airlangga
  alt_name: []
  latitude: -7.265202594883936
  longitude: 112.75881730010164
  type: way
  amenity_type: university
- id: 448790949
  name: Kampus A Universitas Airlangga
  alt_name: []
  latitude: -7.264765310523697
  longitude: 112.7585685967941
  type: way
  amenity_type: university
- id: 448790950
  name: Kampus B Universitas Airlangga
  alt_name: []
  latitude: -7.272310555642032
  longitude: 112.75848768916343
  type: way
  amenity_type: university
- id: 449322778
  name: Universitas Kartini
  alt_name: []
  latitude: -7.299913688673466
  longitude: 112.76237888537315
  type: way
  amenity_type: university
- id: 450914315
  name: Gedung B Universitas Adi Buana
  alt_name: []
  latitude: -7.2934293401684
  longitude: 112.7487937706523
  type: way
  amenity_type: university
- id: 451286549
  name: Magister Manajemen Teknologi ITS
  alt_name: []
  latitude: -7.277830419506269
  longitude: 112.73897752036571
  type: way
  amenity_type: university
- id: 451533249
  name: Universitas Merdeka Surabaya
  alt_name: []
  latitude: -7.320331014169718
  longitude: 112.71826733780053
  type: way
  amenity_type: university
- id: 452033377
  name: Stikes Katolik St. Vincentius A Paulo ( RKZ )
  alt_name: []
  latitude: -7.292912429646525
  longitude: 112.73472020930205
  type: way
  amenity_type: university
- id: 453446719
  name: Universitas Yos Soedarso
  alt_name: []
  latitude: -7.287760999999999
  longitude: 112.70882905
  type: way
  amenity_type: university
- id: 453651723
  name: Pusat Bahasa Universitas Negeri Surabaya
  alt_name: []
  latitude: -7.3148163
  longitude: 112.72816985000001
  type: way
  amenity_type: university
- id: 455039563
  name: Institute IKAIDO
  alt_name: []
  latitude: -7.275076049999998
  longitude: 112.6977828
  type: way
  amenity_type: university
- id: 455195778
  name: Universitas Wijaya Putra Kampus Wiyung
  alt_name: []
  latitude: -7.3142324281632565
  longitude: 112.70080184257527
  type: way
  amenity_type: university
- id: 455679680
  name: Universitas 45 Surabaya
  alt_name: []
  latitude: -7.290960532975602
  longitude: 112.72104390255632
  type: way
  amenity_type: university
- id: 461332370
  name: Fakultas Vokasi
  alt_name: []
  latitude: -7.273743725307438
  longitude: 112.75872732460077
  type: way
  amenity_type: university
- id: 462704781
  name: Kampus A Universitas Nahdlatul Ulama Surabaya
  alt_name: []
  latitude: -7.304451801500683
  longitude: 112.733804153618
  type: way
  amenity_type: university
- id: 463579114
  name: Universitas Surabaya
  alt_name: []
  latitude: -7.320575606180356
  longitude: 112.76788286351567
  type: way
  amenity_type: university
- id: 464654724
  name: Universitas Putra Bangsa
  alt_name: []
  latitude: -7.288907515880701
  longitude: 112.78217923430738
  type: way
  amenity_type: university
- id: 465356460
  name: Kebidanan Sutomo Poltekkes Kemenkes Surabaya
  alt_name: []
  latitude: -7.267238673979165
  longitude: 112.76035883385983
  type: way
  amenity_type: university
- id: 466281993
  name: Universitas Muhammadiyah Sidoarjo
  alt_name: []
  latitude: -7.3332570939029
  longitude: 112.78289505566589
  type: way
  amenity_type: university
- id: 466305059
  name: Universitas Widya Kartika
  alt_name: []
  latitude: -7.260608422726179
  longitude: 112.7943269294978
  type: way
  amenity_type: university
- id: 467091993
  name: BRI Corporate University
  alt_name: []
  latitude: -7.3335890282936305
  longitude: 112.73281193659535
  type: way
  amenity_type: university
- id: 467339097
  name: FIP Universitas Negeri Surabaya
  alt_name: []
  latitude: -7.255757457993506
  longitude: 112.75584146121378
  type: way
  amenity_type: university
- id: 468200090
  name: Jurusan Gizi Poltekkes Kemenkes Surabaya
  alt_name: []
  latitude: -7.286194294983065
  longitude: 112.7604390722075
  type: way
  amenity_type: university
- id: 468626943
  name: Universitas Pembangunan Nasional Veteran Jawa Timur
  alt_name: []
  latitude: -7.333742701257037
  longitude: 112.78861286766235
  type: way
  amenity_type: university
- id: 470103964
  name: Universitas Islam Negeri Sunan Ampel Surabaya
  alt_name: []
  latitude: -7.322301028934127
  longitude: 112.73429949112001
  type: way
  amenity_type: university
- id: 491217435
  name: Universitas Wijaya Kusuma Surabaya
  alt_name: []
  latitude: -7.282290989184826
  longitude: 112.71150750562211
  type: way
  amenity_type: university
- id: 491503296
  name: Universitas Dr. Soetomo
  alt_name: []
  latitude: -7.298410473533033
  longitude: 112.7651725065676
  type: way
  amenity_type: university
- id: 491540737
  name: Universitas 17 Agustus 1945 Surabaya
  alt_name: []
  latitude: -7.298528044370206
  longitude: 112.76737349300856
  type: way
  amenity_type: university
- id: 638474712
  name: Universitas Ciputra
  alt_name: []
  latitude: -7.285467016846788
  longitude: 112.63156703013135
  type: way
  amenity_type: university
- id: 683503528
  name: Politeknik Elektronika Negeri Surabaya
  alt_name: []
  latitude: -7.276512549857658
  longitude: 112.79422020369289
  type: way
  amenity_type: university
- id: 689034887
  name: Universitas Bhayangkara Surabaya
  alt_name: []
  latitude: -7.320920720945321
  longitude: 112.73107538168453
  type: way
  amenity_type: university
- id: 689258417
  name: Universitas Kristen Petra
  alt_name: []
  latitude: -7.339463708230631
  longitude: 112.73796616650264
  type: way
  amenity_type: university
- id: 689258419
  name: Universitas Negeri Surabaya
  alt_name: []
  latitude: -7.314167796613556
  longitude: 112.72680040167515
  type: way
  amenity_type: university
- id: 826347699
  name: Universitas Narotama
  alt_name: []
  latitude: -7.287413410941456
  longitude: 112.77660586412325
  type: way
  amenity_type: university
- id: 876180997
  name: Universitas Katolik Widya Mandala
  alt_name: []
  latitude: -7.270541770275085
  longitude: 112.81175901951966
  type: way
  amenity_type: university
- id: 934164845
  name: Universitas Yos Sudarso
  alt_name: []
  latitude: -7.285382844299684
  longitude: 112.70935861150166
  type: way
  amenity_type: university
- id: 984261437
  name: Universitas WR Supratman
  alt_name: []
  latitude: -7.291446571044154
  longitude: 112.78405127523446
  type: way
  amenity_type: university
- id: 1085781219
  name: Kampus II UIN Sunan Ampel
  alt_name: []
  latitude: -7.344132220198322
  longitude: 112.7845425932655
  type: way
  amenity_type: university
- id: 1103836781
  name: Universitas PGRI Adi Buana
  alt_name: []
  latitude: -7.343926877950395
  longitude: 112.72180421632456
  type: way
  amenity_type: university
- id: 1147595082
  name: Universitas Muhammadiyah Surabaya
  alt_name: []
  latitude: -7.260271429946891
  longitude: 112.78897354856497
  type: way
  amenity_type: university
- id: 1583812543
  name: IKIP Widya Dharma
  alt_name: []
  latitude: -7.3156467
  longitude: 112.7266295
  type: node
  amenity_type: university
- id: 1583828318
  name: Sekolah Tinggi Ilmu Ekonomi Perbanas
  alt_name: []
  latitude: -7.3000873
  longitude: 112.7642977
  type: node
  amenity_type: university
- id: 9816166279
  name: Universitas Pelita Harapan Surabaya
  alt_name: []
  latitude: -7.3449307
  longitude: 112.7286504
  type: node
  amenity_type: university
- id: 9832072676
  name: Politeknik Perkapalan Negeri Surabaya
  alt_name: []
  latitude: -7.277814
  longitude: 112.7957094
  type: node
  amenity_type: university
- id: 12292716887
  name: Universitas Negeri Sunan Ampel
  alt_name: []
  latitude: -7.3446577
  longitude: 112.7842595
  type: node
  amenity_type: university
