sub-districts:
- id: 5802128
  name: Duren Tiga
  alt_name: []
  type: relation
  admin_level: '7'
  boundaries: boundaries/5802128.yaml
  lat: -6.2559452
  lon: 106.8341575
- id: 5802131
  name: Kuningan Timur
  alt_name: []
  type: relation
  admin_level: '7'
  boundaries: boundaries/5802131.yaml
  lat: -6.230969
  lon: 106.8301957
- id: 5802132
  name: Grogol Selatan
  alt_name: []
  type: relation
  admin_level: '7'
  boundaries: boundaries/5802132.yaml
  lat: -6.2308999
  lon: 106.7803086
- id: 5802133
  name: Ciganjur
  alt_name: []
  type: relation
  admin_level: '7'
  boundaries: boundaries/5802133.yaml
  lat: -6.3355851
  lon: 106.8070616
- id: 5802138
  name: Pesanggrahan
  alt_name: []
  type: relation
  admin_level: '7'
  boundaries: boundaries/5802138.yaml
  lat: -6.2557097
  lon: 106.7600011
- id: 5802146
  name: Rawajati
  alt_name: []
  type: relation
  admin_level: '7'
  boundaries: boundaries/5802146.yaml
  lat: -6.2580249
  lon: 106.854993
- id: 5802158
  name: Kebon Baru
  alt_name: []
  type: relation
  admin_level: '7'
  boundaries: boundaries/5802158.yaml
  lat: -6.2329499
  lon: 106.8614867
- id: 5802160
  name: Lenteng Agung
  alt_name: []
  type: relation
  admin_level: '7'
  boundaries: boundaries/5802160.yaml
  lat: -6.3230493
  lon: 106.8362035
- id: 5802162
  name: Melawai
  alt_name: []
  type: relation
  admin_level: '7'
  boundaries: boundaries/5802162.yaml
  lat: -6.2451217
  lon: 106.8023344
- id: 5802167
  name: Grogol Utara
  alt_name: []
  type: relation
  admin_level: '7'
  boundaries: boundaries/5802167.yaml
  lat: -6.2169919
  lon: 106.7866091
- id: 5802182
  name: Mampang Prapatan
  alt_name: []
  type: relation
  admin_level: '7'
  boundaries: boundaries/5802182.yaml
  lat: -6.2426756
  lon: 106.8286635
- id: 5802184
  name: Gandaria Selatan
  alt_name: []
  type: relation
  admin_level: '7'
  boundaries: boundaries/5802184.yaml
  lat: -6.272484
  lon: 106.7948165
- id: 5802191
  name: Pengadegan
  alt_name: []
  type: relation
  admin_level: '7'
  boundaries: boundaries/5802191.yaml
  lat: -6.2489143
  lon: 106.8543495
- id: 5802194
  name: Kalibata
  alt_name: []
  type: relation
  admin_level: '7'
  boundaries: boundaries/5802194.yaml
  lat: -6.2623624
  lon: 106.8402824
- id: 5802195
  name: Pondok Labu
  alt_name: []
  type: relation
  admin_level: '7'
  boundaries: boundaries/5802195.yaml
  lat: -6.3087725
  lon: 106.7978563
- id: 5802198
  name: Petogogan
  alt_name: []
  type: relation
  admin_level: '7'
  boundaries: boundaries/5802198.yaml
  lat: -6.2432098
  lon: 106.8114672
- id: 5802200
  name: Bangka
  alt_name: []
  type: relation
  admin_level: '7'
  boundaries: boundaries/5802200.yaml
  lat: -6.2630889
  lon: 106.8184883
- id: 5802209
  name: Cipete Utara
  alt_name: []
  type: relation
  admin_level: '7'
  boundaries: boundaries/5802209.yaml
  lat: -6.2618041
  lon: 106.8041214
- id: 5802219
  name: Manggarai Selatan
  alt_name: []
  type: relation
  admin_level: '7'
  boundaries: boundaries/5802219.yaml
  lat: -6.2213445
  lon: 106.8496177
- id: 5802221
  name: Jagakarsa
  alt_name: []
  type: relation
  admin_level: '7'
  boundaries: boundaries/5802221.yaml
  lat: -6.3247665
  lon: 106.8194219
- id: 5802223
  name: Kebagusan
  alt_name: []
  type: relation
  admin_level: '7'
  boundaries: boundaries/5802223.yaml
  lat: -6.3103102
  lon: 106.8312171
- id: 5802228
  name: Petukangan Selatan
  alt_name: []
  type: relation
  admin_level: '7'
  boundaries: boundaries/5802228.yaml
  lat: -6.243428
  lon: 106.7536421
- id: 5802229
  name: Cilandak Timur
  alt_name: []
  type: relation
  admin_level: '7'
  boundaries: boundaries/5802229.yaml
  lat: -6.2894658
  lon: 106.8124767
- id: 5802233
  name: Cipedak
  alt_name: []
  type: relation
  admin_level: '7'
  boundaries: boundaries/5802233.yaml
  lat: -6.3518261
  lon: 106.8016288
- id: 5802238
  name: Gandaria Utara
  alt_name: []
  type: relation
  admin_level: '7'
  boundaries: boundaries/5802238.yaml
  lat: -6.2577702
  lon: 106.7910352
- id: 5802242
  name: Kebayoran Lama Utara
  alt_name: []
  type: relation
  admin_level: '7'
  boundaries: boundaries/5802242.yaml
  lat: -6.2448215
  lon: 106.7782383
- id: 5802245
  name: Manggarai
  alt_name: []
  type: relation
  admin_level: '7'
  boundaries: boundaries/5802245.yaml
  lat: -6.2134963
  lon: 106.8509392
- id: 5802257
  name: Karet
  alt_name: []
  type: relation
  admin_level: '7'
  boundaries: boundaries/5802257.yaml
  lat: -6.213546
  lon: 106.8270569
- id: 5802263
  name: Petukangan Utara
  alt_name: []
  type: relation
  admin_level: '7'
  boundaries: boundaries/5802263.yaml
  lat: -6.2296276
  lon: 106.7510906
- id: 5802265
  name: Gunung
  alt_name: []
  type: relation
  admin_level: '7'
  boundaries: boundaries/5802265.yaml
  lat: -6.2364246
  lon: 106.7914922
- id: 5802275
  name: Selong
  alt_name: []
  type: relation
  admin_level: '7'
  boundaries: boundaries/5802275.yaml
  lat: -6.2346188
  lon: 106.803819
- id: 5802276
  name: Kuningan Barat
  alt_name: []
  type: relation
  admin_level: '7'
  boundaries: boundaries/5802276.yaml
  lat: -6.2364893
  lon: 106.8218724
- id: 5802284
  name: Cikoko
  alt_name: []
  type: relation
  admin_level: '7'
  boundaries: boundaries/5802284.yaml
  lat: -6.2449525
  lon: 106.8550588
- id: 5802293
  name: Cipulir
  alt_name: []
  type: relation
  admin_level: '7'
  boundaries: boundaries/5802293.yaml
  lat: -6.2385664
  lon: 106.7734378
- id: 5802294
  name: Pela Mampang
  alt_name: []
  type: relation
  admin_level: '7'
  boundaries: boundaries/5802294.yaml
  lat: -6.2482363
  lon: 106.8176031
- id: 5802296
  name: Guntur
  alt_name: []
  type: relation
  admin_level: '7'
  boundaries: boundaries/5802296.yaml
  lat: -6.2083116
  lon: 106.8333124
- id: 5802299
  name: Senayan
  alt_name: []
  type: relation
  admin_level: '7'
  boundaries: boundaries/5802299.yaml
  lat: -6.2265862
  lon: 106.8115621
- id: 5802300
  name: Pondok Pinang
  alt_name: []
  type: relation
  admin_level: '7'
  boundaries: boundaries/5802300.yaml
  lat: -6.2736372
  lon: 106.7789504
- id: 5802301
  name: Karet Semanggi
  alt_name: []
  type: relation
  admin_level: '7'
  boundaries: boundaries/5802301.yaml
  lat: -6.2229244
  lon: 106.8182629
- id: 5802302
  name: Pulo
  alt_name: []
  type: relation
  admin_level: '7'
  boundaries: boundaries/5802302.yaml
  lat: -6.2540311
  lon: 106.8025524
- id: 5802306
  name: Ulujami
  alt_name: []
  type: relation
  admin_level: '7'
  boundaries: boundaries/5802306.yaml
  lat: -6.234164
  lon: 106.7626018
- id: 5802308
  name: Tegal Parang
  alt_name: []
  type: relation
  admin_level: '7'
  boundaries: boundaries/5802308.yaml
  lat: -6.2489089
  lon: 106.8296061
- id: 5802311
  name: Kebayoran Lama Selatan
  alt_name: []
  type: relation
  admin_level: '7'
  boundaries: boundaries/5802311.yaml
  lat: -6.2553149
  lon: 106.7790703
- id: 5802313
  name: Pejaten Timur
  alt_name: []
  type: relation
  admin_level: '7'
  boundaries: boundaries/5802313.yaml
  lat: -6.2808809
  lon: 106.8469064
- id: 5802316
  name: Jati Padang
  alt_name: []
  type: relation
  admin_level: '7'
  boundaries: boundaries/5802316.yaml
  lat: -6.2872405
  lon: 106.8305449
- id: 5802320
  name: Cilandak Barat
  alt_name: []
  type: relation
  admin_level: '7'
  boundaries: boundaries/5802320.yaml
  lat: -6.288078
  lon: 106.7968651
- id: 5802323
  name: Rawa Barat
  alt_name: []
  type: relation
  admin_level: '7'
  boundaries: boundaries/5802323.yaml
  lat: -6.2361238
  lon: 106.8133271
- id: 5802327
  name: Tanjung Barat
  alt_name: []
  type: relation
  admin_level: '7'
  boundaries: boundaries/5802327.yaml
  lat: -6.3065276
  lon: 106.8488333
- id: 5802338
  name: Lebak Bulus
  alt_name: []
  type: relation
  admin_level: '7'
  boundaries: boundaries/5802338.yaml
  lat: -6.3016717
  lon: 106.779691
- id: 5802341
  name: Pancoran
  alt_name: []
  type: relation
  admin_level: '7'
  boundaries: boundaries/5802341.yaml
  lat: -6.2475556
  lon: 106.8414296
- id: 5802344
  name: Pasar Minggu
  alt_name: []
  type: relation
  admin_level: '7'
  boundaries: boundaries/5802344.yaml
  lat: -6.2893924
  lon: 106.8390511
- id: 5802348
  name: Setiabudi
  alt_name: []
  type: relation
  admin_level: '7'
  boundaries: boundaries/5802348.yaml
  lat: -6.2073266
  lon: 106.8256107
- id: 5802350
  name: Pejaten Barat
  alt_name: []
  type: relation
  admin_level: '7'
  boundaries: boundaries/5802350.yaml
  lat: -6.2737213
  lon: 106.8347013
- id: 5802352
  name: Bintaro
  alt_name: []
  type: relation
  admin_level: '7'
  boundaries: boundaries/5802352.yaml
  lat: -6.2682262
  lon: 106.7648364
- id: 5802356
  name: Pasar Manggis
  alt_name: []
  type: relation
  admin_level: '7'
  boundaries: boundaries/5802356.yaml
  lat: -6.2103818
  lon: 106.8412272
- id: 5802361
  name: Karet Kuningan
  alt_name: []
  type: relation
  admin_level: '7'
  boundaries: boundaries/5802361.yaml
  lat: -6.2209099
  lon: 106.8287267
- id: 5802369
  name: Cipete Selatan
  alt_name: []
  type: relation
  admin_level: '7'
  boundaries: boundaries/5802369.yaml
  lat: -6.2717196
  lon: 106.8049209
- id: 5802371
  name: Kramat Pela
  alt_name: []
  type: relation
  admin_level: '7'
  boundaries: boundaries/5802371.yaml
  lat: -6.2453477
  lon: 106.7924628
- id: 5802374
  name: Ragunan
  alt_name: []
  type: relation
  admin_level: '7'
  boundaries: boundaries/5802374.yaml
  lat: -6.2976668
  lon: 106.8204823
- id: 5802376
  name: Srengseng Sawah
  alt_name: []
  type: relation
  admin_level: '7'
  boundaries: boundaries/5802376.yaml
  lat: -6.3449388
  lon: 106.8262052
- id: 5802382
  name: Menteng Atas
  alt_name: []
  type: relation
  admin_level: '7'
  boundaries: boundaries/5802382.yaml
  lat: -6.217658
  lon: 106.8405069
- id: 7152610
  name: Tebet Barat
  alt_name: []
  type: relation
  admin_level: '7'
  boundaries: boundaries/7152610.yaml
  lat: -6.2339315
  lon: 106.8489052
- id: 7152644
  name: Tebet Timur
  alt_name: []
  type: relation
  admin_level: '7'
  boundaries: boundaries/7152644.yaml
  lat: -6.2328614
  lon: 106.8549546
- id: 7198542
  name: Menteng Dalam
  alt_name: []
  type: relation
  admin_level: '7'
  boundaries: boundaries/7198542.yaml
  lat: -6.230139
  lon: 106.8418824
- id: 7210655
  name: Bukit Duri
  alt_name: []
  type: relation
  admin_level: '7'
  boundaries: boundaries/7210655.yaml
  lat: -6.2210945
  lon: 106.8584257
