sub-districts:
- id: 5802124
  name: Kayu Putih
  alt_name: []
  type: relation
  admin_level: '7'
  boundaries: boundaries/5802124.yaml
  lat: -6.17927114715743
  lon: 106.88373981340008
- id: 5802130
  name: Dukuh
  alt_name: []
  type: relation
  admin_level: '7'
  boundaries: boundaries/5802130.yaml
  lat: -6.294532241704224
  lon: 106.87727790110563
- id: 5802136
  name: Pondok Kelapa
  alt_name: []
  type: relation
  admin_level: '7'
  boundaries: boundaries/5802136.yaml
  lat: -6.241198018184569
  lon: 106.93177593176577
- id: 5802141
  name: Bali Mester
  alt_name:
  - Balimester
  type: relation
  admin_level: '7'
  boundaries: boundaries/5802141.yaml
  lat: -6.220545028999395
  lon: 106.86660489315955
- id: 5802147
  name: Munjul
  alt_name: []
  type: relation
  admin_level: '7'
  boundaries: boundaries/5802147.yaml
  lat: -6.347965257256841
  lon: 106.89545072654188
- id: 5802152
  name: Kebon Pala
  alt_name: []
  type: relation
  admin_level: '7'
  boundaries: boundaries/5802152.yaml
  lat: -6.2560006764358
  lon: 106.87772907794329
- id: 5802154
  name: Batu Ampar
  alt_name: []
  type: relation
  admin_level: '7'
  boundaries: boundaries/5802154.yaml
  lat: -6.279300102095196
  lon: 106.86115107061545
- id: 5802163
  name: Kebon Manggis
  alt_name: []
  type: relation
  admin_level: '7'
  boundaries: boundaries/5802163.yaml
  lat: -6.207563218218128
  lon: 106.85551148250339
- id: 5802172
  name: Penggilingan
  alt_name: []
  type: relation
  admin_level: '7'
  boundaries: boundaries/5802172.yaml
  lat: -6.204813996531027
  lon: 106.93476280520856
- id: 5802173
  name: Rawa Bunga
  alt_name: []
  type: relation
  admin_level: '7'
  boundaries: boundaries/5802173.yaml
  lat: -6.220174542376687
  lon: 106.87145708313834
- id: 5802176
  name: Pulo Gebang
  alt_name: []
  type: relation
  admin_level: '7'
  boundaries: boundaries/5802176.yaml
  lat: -6.202926131707697
  lon: 106.95166815047662
- id: 5802180
  name: Utan Kayu Selatan
  alt_name: []
  type: relation
  admin_level: '7'
  boundaries: boundaries/5802180.yaml
  lat: -6.203529502949997
  lon: 106.86903682050021
- id: 5802183
  name: Kampung Tengah
  alt_name: []
  type: relation
  admin_level: '7'
  boundaries: boundaries/5802183.yaml
  lat: -6.290498658725202
  lon: 106.86641722598306
- id: 5802187
  name: Baru
  alt_name: []
  type: relation
  admin_level: '7'
  boundaries: boundaries/5802187.yaml
  lat: -6.324080331008107
  lon: 106.84719428209814
- id: 5802189
  name: Cijantung
  alt_name: []
  type: relation
  admin_level: '7'
  boundaries: boundaries/5802189.yaml
  lat: -6.321536500501078
  lon: 106.85858699754706
- id: 5802193
  name: Palmeriam
  alt_name:
  - Pal Meriam
  type: relation
  admin_level: '7'
  boundaries: boundaries/5802193.yaml
  lat: -6.2033343987727845
  lon: 106.85891144146849
- id: 5802203
  name: Cawang
  alt_name: []
  type: relation
  admin_level: '7'
  boundaries: boundaries/5802203.yaml
  lat: -6.2507781564643405
  lon: 106.86684604879993
- id: 5802208
  name: Pekayon
  alt_name: []
  type: relation
  admin_level: '7'
  boundaries: boundaries/5802208.yaml
  lat: -6.345295571557285
  lon: 106.86433076500381
- id: 5802210
  name: Pondok Bambu
  alt_name: []
  type: relation
  admin_level: '7'
  boundaries: boundaries/5802210.yaml
  lat: -6.234796906703925
  lon: 106.9008811057803
- id: 5802214
  name: Bale Kambang
  alt_name: []
  type: relation
  admin_level: '7'
  boundaries: boundaries/5802214.yaml
  lat: -6.281610245918959
  lon: 106.85283583196308
- id: 5802215
  name: Pinang Ranti
  alt_name: []
  type: relation
  admin_level: '7'
  boundaries: boundaries/5802215.yaml
  lat: -6.289398173354781
  lon: 106.8842907451683
- id: 5802217
  name: Ceger
  alt_name: []
  type: relation
  admin_level: '7'
  boundaries: boundaries/5802217.yaml
  lat: -6.31228269257081
  lon: 106.89048739528208
- id: 5802220
  name: Jatinegara
  alt_name: []
  type: relation
  admin_level: '7'
  boundaries: boundaries/5802220.yaml
  lat: -6.20388715442145
  lon: 106.91608545538188
- id: 5802224
  name: Cipinang
  alt_name: []
  type: relation
  admin_level: '7'
  boundaries: boundaries/5802224.yaml
  lat: -6.2076329927611225
  lon: 106.8913278935367
- id: 5802230
  name: Jati
  alt_name: []
  type: relation
  admin_level: '7'
  boundaries: boundaries/5802230.yaml
  lat: -6.1943750559233175
  lon: 106.8964441940874
- id: 5802232
  name: Cipinang Besar Utara
  alt_name: []
  type: relation
  admin_level: '7'
  boundaries: boundaries/5802232.yaml
  lat: -6.218860979916505
  lon: 106.8794414419765
- id: 5802234
  name: Cipinang Muara
  alt_name: []
  type: relation
  admin_level: '7'
  boundaries: boundaries/5802234.yaml
  lat: -6.226406144556368
  lon: 106.88888571835228
- id: 5802236
  name: Rawamangun
  alt_name: []
  type: relation
  admin_level: '7'
  boundaries: boundaries/5802236.yaml
  lat: -6.195893110992245
  lon: 106.88230711177007
- id: 5802244
  name: Duren Sawit
  alt_name: []
  type: relation
  admin_level: '7'
  boundaries: boundaries/5802244.yaml
  lat: -6.233434805197148
  lon: 106.91618052761264
- id: 5802251
  name: Kampung Melayu
  alt_name: []
  type: relation
  admin_level: '7'
  boundaries: boundaries/5802251.yaml
  lat: -6.217206977836681
  lon: 106.86130337880303
- id: 5802253
  name: Cipayung
  alt_name:
  - Kelurahan Cipayung
  type: relation
  admin_level: '7'
  boundaries: boundaries/5802253.yaml
  lat: -6.328314488217104
  lon: 106.89405560828109
- id: 5802259
  name: Pisangan Baru
  alt_name: []
  type: relation
  admin_level: '7'
  boundaries: boundaries/5802259.yaml
  lat: -6.2117839648186886
  lon: 106.86892887346804
- id: 5802261
  name: Cipinang Cempedak
  alt_name: []
  type: relation
  admin_level: '7'
  boundaries: boundaries/5802261.yaml
  lat: -6.235514713700574
  lon: 106.87325103930162
- id: 5802266
  name: Halim Perdana Kusuma
  alt_name:
  - Halim Perdanakusuma
  type: relation
  admin_level: '7'
  boundaries: boundaries/5802266.yaml
  lat: -6.265655813489465
  lon: 106.89339973601336
- id: 5802268
  name: Ujung Menteng
  alt_name: []
  type: relation
  admin_level: '7'
  boundaries: boundaries/5802268.yaml
  lat: -6.1867507063623455
  lon: 106.95997566877624
- id: 5802271
  name: Cilangkap
  alt_name: []
  type: relation
  admin_level: '7'
  boundaries: boundaries/5802271.yaml
  lat: -6.334652753082709
  lon: 106.90736898498128
- id: 5802278
  name: Cipinang Besar Selatan
  alt_name: []
  type: relation
  admin_level: '7'
  boundaries: boundaries/5802278.yaml
  lat: -6.22991194503805
  lon: 106.8806626560213
- id: 5802281
  name: Taman Mini Indonesia Indah (TMII)
  alt_name: []
  type: relation
  admin_level: '7'
  boundaries: boundaries/5802281.yaml
  lat: -6.300695144740566
  lon: 106.89631797566861
- id: 5802283
  name: Utan Kayu Utara
  alt_name: []
  type: relation
  admin_level: '7'
  boundaries: boundaries/5802283.yaml
  lat: -6.195672344407057
  lon: 106.86815322069148
- id: 5802289
  name: Pisangan Timur
  alt_name: []
  type: relation
  admin_level: '7'
  boundaries: boundaries/5802289.yaml
  lat: -6.2085294160306566
  lon: 106.8801926192341
- id: 5802295
  name: Kayu Manis
  alt_name: []
  type: relation
  admin_level: '7'
  boundaries: boundaries/5802295.yaml
  lat: -6.203060132557409
  lon: 106.86231691774596
- id: 5802298
  name: Kramat Jati
  alt_name: []
  type: relation
  admin_level: '7'
  boundaries: boundaries/5802298.yaml
  lat: -6.2745507147186625
  lon: 106.87075941723603
- id: 5802303
  name: Gedong
  alt_name: []
  type: relation
  admin_level: '7'
  boundaries: boundaries/5802303.yaml
  lat: -6.302327007502303
  lon: 106.86014717023723
- id: 5802304
  name: Cakung Barat
  alt_name: []
  type: relation
  admin_level: '7'
  boundaries: boundaries/5802304.yaml
  lat: -6.1738651849635575
  lon: 106.9356703798696
- id: 5802309
  name: Makasar
  alt_name: []
  type: relation
  admin_level: '7'
  boundaries: boundaries/5802309.yaml
  lat: -6.274833224106383
  lon: 106.87700497262202
- id: 5802314
  name: Rawa Terate
  alt_name: []
  type: relation
  admin_level: '7'
  boundaries: boundaries/5802314.yaml
  lat: -6.185637930978923
  lon: 106.91971451724865
- id: 5802315
  name: Jatinegara Kaum
  alt_name: []
  type: relation
  admin_level: '7'
  boundaries: boundaries/5802315.yaml
  lat: -6.202436683704659
  lon: 106.90144533687493
- id: 5802318
  name: Cakung Timur
  alt_name: []
  type: relation
  admin_level: '7'
  boundaries: boundaries/5802318.yaml
  lat: -6.171440248902927
  lon: 106.95560591636594
- id: 5802326
  name: Kelapa Dua Wetan
  alt_name: []
  type: relation
  admin_level: '7'
  boundaries: boundaries/5802326.yaml
  lat: -6.341074758640932
  lon: 106.88301307928035
- id: 5802330
  name: Malaka Jaya
  alt_name: []
  type: relation
  admin_level: '7'
  boundaries: boundaries/5802330.yaml
  lat: -6.223746096417538
  lon: 106.93502880192719
- id: 5802332
  name: Malaka Sari
  alt_name: []
  type: relation
  admin_level: '7'
  boundaries: boundaries/5802332.yaml
  lat: -6.2238315117869085
  lon: 106.92845215268322
- id: 5802336
  name: Pulo Gadung
  alt_name:
  - Pulogadung
  type: relation
  admin_level: '7'
  boundaries: boundaries/5802336.yaml
  lat: -6.182900331948841
  lon: 106.89879553103228
- id: 5802337
  name: Cibubur
  alt_name: []
  type: relation
  admin_level: '7'
  boundaries: boundaries/5802337.yaml
  lat: -6.358753249191615
  lon: 106.88345809594998
- id: 5802340
  name: Pondok Kopi
  alt_name: []
  type: relation
  admin_level: '7'
  boundaries: boundaries/5802340.yaml
  lat: -6.227191799444486
  lon: 106.94263936473048
- id: 5802349
  name: Cililitan
  alt_name: []
  type: relation
  admin_level: '7'
  boundaries: boundaries/5802349.yaml
  lat: -6.262491486115987
  lon: 106.86438620024205
- id: 5802354
  name: Bambu Apus
  alt_name: []
  type: relation
  admin_level: '7'
  boundaries: boundaries/5802354.yaml
  lat: -6.313888085944798
  lon: 106.90320503833568
- id: 5802359
  name: Klender
  alt_name: []
  type: relation
  admin_level: '7'
  boundaries: boundaries/5802359.yaml
  lat: -6.218513885583062
  lon: 106.90837576932867
- id: 5802360
  name: Cipinang Melayu
  alt_name: []
  type: relation
  admin_level: '7'
  boundaries: boundaries/5802360.yaml
  lat: -6.24930743135588
  lon: 106.90575395890117
- id: 5802363
  name: Ciracas
  alt_name: []
  type: relation
  admin_level: '7'
  boundaries: boundaries/5802363.yaml
  lat: -6.325771138635536
  lon: 106.875688476758
- id: 5802365
  name: Rambutan
  alt_name: []
  type: relation
  admin_level: '7'
  boundaries: boundaries/5802365.yaml
  lat: -6.307256266824796
  lon: 106.8771398760598
- id: 5802367
  name: Kalisari
  alt_name: []
  type: relation
  admin_level: '7'
  boundaries: boundaries/5802367.yaml
  lat: -6.335230291983262
  lon: 106.85346823603115
- id: 5802368
  name: Bidara Cina
  alt_name: []
  type: relation
  admin_level: '7'
  boundaries: boundaries/5802368.yaml
  lat: -6.2352849000379615
  lon: 106.8669252648476
- id: 5802370
  name: Lubang Buaya
  alt_name: []
  type: relation
  admin_level: '7'
  boundaries: boundaries/5802370.yaml
  lat: -6.294055257737981
  lon: 106.90318342620738
- id: 5802377
  name: Pondok Ranggon
  alt_name: []
  type: relation
  admin_level: '7'
  boundaries: boundaries/5802377.yaml
  lat: -6.3574998671045115
  lon: 106.9057927620307
- id: 5802381
  name: Setu
  alt_name: []
  type: relation
  admin_level: '7'
  boundaries: boundaries/5802381.yaml
  lat: -6.313919272618628
  lon: 106.91381007098701
- id: 5802386
  name: Susukan
  alt_name: []
  type: relation
  admin_level: '7'
  boundaries: boundaries/5802386.yaml
  lat: -6.313555359753111
  lon: 106.86849906453352
