objects:
- id: 7301840
  name: Gereja Santa Maria
  alt_name: []
  latitude: -6.220161899377495
  longitude: 106.86427202324863
  type: relation
  amenity_type: place_of_worship
- id: 7346785
  name: Mushollah CV. Indovrom
  alt_name: []
  latitude: -6.26766872286838
  longitude: 106.88313615601834
  type: relation
  amenity_type: place_of_worship
- id: 17971839
  name: Musholla Miftahul Jannah
  alt_name: []
  latitude: -6.2216466391028655
  longitude: 106.89855579493693
  type: relation
  amenity_type: place_of_worship
- id: 119430980
  name: Masjid Abu Bakar Ash-Shiddiq
  alt_name: []
  latitude: -6.341028870828814
  longitude: 106.86283309473917
  type: way
  amenity_type: place_of_worship
- id: 119539690
  name: Masjid Jami' Al Karomah
  alt_name: []
  latitude: -6.258847455452903
  longitude: 106.86101231138657
  type: way
  amenity_type: place_of_worship
- id: 119611146
  name: Masjid Jami Nurul Hidayah
  alt_name: []
  latitude: -6.339180315649164
  longitude: 106.86840043240045
  type: way
  amenity_type: place_of_worship
- id: 119726115
  name: Masjid Jami Jaya Sakti
  alt_name: []
  latitude: -6.337211600000001
  longitude: 106.86178709999999
  type: way
  amenity_type: place_of_worship
- id: 119726249
  name: Masjid At-Taqwa
  alt_name: []
  latitude: -6.338206497249971
  longitude: 106.8581085436698
  type: way
  amenity_type: place_of_worship
- id: 119728477
  name: Masjid Jami Baitul Muttaqin
  alt_name: []
  latitude: -6.334798883564513
  longitude: 106.8535065287758
  type: way
  amenity_type: place_of_worship
- id: 119763562
  name: Masjid Baitur Rahmah
  alt_name: []
  latitude: -6.249513142132894
  longitude: 106.86641388205709
  type: way
  amenity_type: place_of_worship
- id: 119772381
  name: Masjid Raya Al Azhar
  alt_name: []
  latitude: -6.211559081727305
  longitude: 106.94585420545638
  type: way
  amenity_type: place_of_worship
- id: 119772389
  name: Masjid Al Hasanah
  alt_name: []
  latitude: -6.23168799375641
  longitude: 106.8669159235602
  type: way
  amenity_type: place_of_worship
- id: 119777448
  name: Masjid Jami' Al Insaniyyah
  alt_name: []
  latitude: -6.2243377639030415
  longitude: 106.86924506985731
  type: way
  amenity_type: place_of_worship
- id: 119890301
  name: Masjid Jami' Al-Khoir
  alt_name: []
  latitude: -6.223981468286305
  longitude: 106.93192294553802
  type: way
  amenity_type: place_of_worship
- id: 119907085
  name: Masjid Panglima Besar Soedirman
  alt_name: []
  latitude: -6.315226949861203
  longitude: 106.86187333321645
  type: way
  amenity_type: place_of_worship
- id: 119910323
  name: Masjid Jami Al-Maghfiroh
  alt_name: []
  latitude: -6.3436638
  longitude: 106.86260195000003
  type: way
  amenity_type: place_of_worship
- id: 119913346
  name: Gereja Lahai Roi
  alt_name: []
  latitude: -6.312328914009809
  longitude: 106.85953800571397
  type: way
  amenity_type: place_of_worship
- id: 119914572
  name: Masjid Jami Al Barkah
  alt_name: []
  latitude: -6.305462006221137
  longitude: 106.86762222162714
  type: way
  amenity_type: place_of_worship
- id: 120007458
  name: Masjid Jami Al-Badru
  alt_name: []
  latitude: -6.345546757668962
  longitude: 106.86696915087153
  type: way
  amenity_type: place_of_worship
- id: 120008346
  name: Masjid Al-Maruf
  alt_name: []
  latitude: -6.35114935
  longitude: 106.88040445
  type: way
  amenity_type: place_of_worship
- id: 120008717
  name: Masjid Al-Muhtadun
  alt_name: []
  latitude: -6.350140272868906
  longitude: 106.88339764207596
  type: way
  amenity_type: place_of_worship
- id: 120016113
  name: Masjid Al Jadid
  alt_name: []
  latitude: -6.326592782926007
  longitude: 106.85224569833821
  type: way
  amenity_type: place_of_worship
- id: 120017008
  name: Masjid Nurul Iman
  alt_name: []
  latitude: -6.325562253985807
  longitude: 106.85595459336062
  type: way
  amenity_type: place_of_worship
- id: 120020156
  name: Masjid Fatahillah
  alt_name: []
  latitude: -6.285315172552586
  longitude: 106.87002269251104
  type: way
  amenity_type: place_of_worship
- id: 120161313
  name: Masjid Raya Borobudur
  alt_name: []
  latitude: -6.243424850000002
  longitude: 106.89733615
  type: way
  amenity_type: place_of_worship
- id: 120161318
  name: Masjid Jami' Al-Awwabin
  alt_name: []
  latitude: -6.285952099999999
  longitude: 106.87378020000001
  type: way
  amenity_type: place_of_worship
- id: 120161326
  name: Masjid Jami Al Awwabin
  alt_name: []
  latitude: -6.300804530979159
  longitude: 106.86933758974624
  type: way
  amenity_type: place_of_worship
- id: 120161339
  name: Masjid Jami' Al-Amin
  alt_name: []
  latitude: -6.284011099999999
  longitude: 106.873149
  type: way
  amenity_type: place_of_worship
- id: 120161344
  name: Masjid Jami Al-Hidayah
  alt_name: []
  latitude: -6.255690157041779
  longitude: 106.86791092070631
  type: way
  amenity_type: place_of_worship
- id: 120161361
  name: Musholla Darul Ulum
  alt_name: []
  latitude: -6.3018871848204725
  longitude: 106.86938956993082
  type: way
  amenity_type: place_of_worship
- id: 120171550
  name: Masjid Jami Al Wustho
  alt_name: []
  latitude: -6.245095756206074
  longitude: 106.90784153188169
  type: way
  amenity_type: place_of_worship
- id: 120317729
  name: GKPO Immanuel
  alt_name: []
  latitude: -6.339965599999999
  longitude: 106.8669009
  type: way
  amenity_type: place_of_worship
- id: 120326897
  name: Masjid Al-Barkah
  alt_name: []
  latitude: -6.287765750000002
  longitude: 106.87249770000001
  type: way
  amenity_type: place_of_worship
- id: 120383091
  name: Masjid Al Makmur
  alt_name: []
  latitude: -6.3453934782441195
  longitude: 106.87173494553896
  type: way
  amenity_type: place_of_worship
- id: 120383097
  name: Musholla Al-Bayan
  alt_name: []
  latitude: -6.258057683685826
  longitude: 106.86443516827475
  type: way
  amenity_type: place_of_worship
- id: 120547537
  name: Masjid Jami Al-Furqon
  alt_name: []
  latitude: -6.200772271853463
  longitude: 106.85651236626983
  type: way
  amenity_type: place_of_worship
- id: 120628789
  name: Mushola Nurul Amin
  alt_name: []
  latitude: -6.340935640633218
  longitude: 106.8637648143083
  type: way
  amenity_type: place_of_worship
- id: 120990762
  name: Masjid Asiah Nur Ahmad
  alt_name: []
  latitude: -6.208543849999999
  longitude: 106.87443679999998
  type: way
  amenity_type: place_of_worship
- id: 121391107
  name: Gereja Huria Kristen Batak Protestan
  alt_name: []
  latitude: -6.221697833557092
  longitude: 106.93418396937533
  type: way
  amenity_type: place_of_worship
- id: 121507811
  name: Masjid Al-Furqaan
  alt_name: []
  latitude: -6.22076560854645
  longitude: 106.93032872144377
  type: way
  amenity_type: place_of_worship
- id: 121651758
  name: Masjid Al-Hikmah
  alt_name: []
  latitude: -6.2233163
  longitude: 106.92804405
  type: way
  amenity_type: place_of_worship
- id: 121651760
  name: Masjid Darussalam
  alt_name: []
  latitude: -6.223017121812382
  longitude: 106.93089704261736
  type: way
  amenity_type: place_of_worship
- id: 122097401
  name: Masjid Nurul Islam
  alt_name: []
  latitude: -6.220708313092551
  longitude: 106.93828821373036
  type: way
  amenity_type: place_of_worship
- id: 123317403
  name: Masjid Darun Ni'mah
  alt_name: []
  latitude: -6.22754802204506
  longitude: 106.92967879482416
  type: way
  amenity_type: place_of_worship
- id: 123424942
  name: Masjid Fadhillatul Huda
  alt_name: []
  latitude: -6.224777425080936
  longitude: 106.9292362589443
  type: way
  amenity_type: place_of_worship
- id: 123424954
  name: Gereja Kristen Oikumene
  alt_name: []
  latitude: -6.2213301485783825
  longitude: 106.93496860822063
  type: way
  amenity_type: place_of_worship
- id: 123433377
  name: Masjid At Taqwa
  alt_name: []
  latitude: -6.229419357574287
  longitude: 106.89535100530786
  type: way
  amenity_type: place_of_worship
- id: 123452165
  name: Masjid At-Tin
  alt_name: []
  latitude: -6.297696575003815
  longitude: 106.88423777852877
  type: way
  amenity_type: place_of_worship
- id: 153751679
  name: Masjid Khusnul Khotimah
  alt_name: []
  latitude: -6.3435728257378265
  longitude: 106.85855842176272
  type: way
  amenity_type: place_of_worship
- id: 153751685
  name: Mushollah Nurul Muhammadin
  alt_name: []
  latitude: -6.344677329058663
  longitude: 106.85768324344741
  type: way
  amenity_type: place_of_worship
- id: 155259328
  name: Masjid Jami' Al - Fajar
  alt_name: []
  latitude: -6.349189838435928
  longitude: 106.89872014978327
  type: way
  amenity_type: place_of_worship
- id: 155584074
  name: Masjid Jami Hayatul Islam
  alt_name: []
  latitude: -6.220459586326523
  longitude: 106.8774283539368
  type: way
  amenity_type: place_of_worship
- id: 155930170
  name: Masjid Al Khoiriah
  alt_name: []
  latitude: -6.2885063500000005
  longitude: 106.88540870000001
  type: way
  amenity_type: place_of_worship
- id: 155930171
  name: Masjid Baiturrohim
  alt_name: []
  latitude: -6.278160398183516
  longitude: 106.88242774112781
  type: way
  amenity_type: place_of_worship
- id: 155930173
  name: Masjid Jami' Uswatun Hasanah
  alt_name: []
  latitude: -6.289940481037025
  longitude: 106.88166175303617
  type: way
  amenity_type: place_of_worship
- id: 155930175
  name: At-Tarbiyah Uswatun Hasanah
  alt_name: []
  latitude: -6.285379709103035
  longitude: 106.88188076897855
  type: way
  amenity_type: place_of_worship
- id: 155931499
  name: Mesjid Al-Mubarokah
  alt_name: []
  latitude: -6.306981299999999
  longitude: 106.8885647
  type: way
  amenity_type: place_of_worship
- id: 155931501
  name: Masjid Jami At Taubah
  alt_name: []
  latitude: -6.3077358789928795
  longitude: 106.8864632063036
  type: way
  amenity_type: place_of_worship
- id: 155931502
  name: Mushollah Al-Hidayah
  alt_name: []
  latitude: -6.319127399999999
  longitude: 106.88822415
  type: way
  amenity_type: place_of_worship
- id: 155931504
  name: Mushollah Al-Ikhlas
  alt_name: []
  latitude: -6.313163300000001
  longitude: 106.88659645000001
  type: way
  amenity_type: place_of_worship
- id: 155931506
  name: Mushollah Al-Munawaroh
  alt_name: []
  latitude: -6.317987233929377
  longitude: 106.88852728232575
  type: way
  amenity_type: place_of_worship
- id: 155931507
  name: Mushollah Nurul Huda
  alt_name: []
  latitude: -6.309375152839874
  longitude: 106.88591376959295
  type: way
  amenity_type: place_of_worship
- id: 155933432
  name: Masjid Jami' Al-Barokah
  alt_name: []
  latitude: -6.2119660489709965
  longitude: 106.86318168272228
  type: way
  amenity_type: place_of_worship
- id: 155933433
  name: Masjid As'Saadah
  alt_name: []
  latitude: -6.223855331854338
  longitude: 106.87274481079423
  type: way
  amenity_type: place_of_worship
- id: 155933435
  name: Masjid Nurul Islam
  alt_name: []
  latitude: -6.217576259659268
  longitude: 106.86809745053162
  type: way
  amenity_type: place_of_worship
- id: 155935202
  name: GPIB Koinonia
  alt_name: []
  latitude: -6.213856573593843
  longitude: 106.8618760568493
  type: way
  amenity_type: place_of_worship
- id: 155935377
  name: Masjid Ar Rahim
  alt_name: []
  latitude: -6.20586116853294
  longitude: 106.85790630709498
  type: way
  amenity_type: place_of_worship
- id: 155935389
  name: Masjid Nurul Islam
  alt_name: []
  latitude: -6.211683371163528
  longitude: 106.85702387458394
  type: way
  amenity_type: place_of_worship
- id: 155935390
  name: Masjid As Sofat
  alt_name: []
  latitude: -6.210732633187466
  longitude: 106.85788095792617
  type: way
  amenity_type: place_of_worship
- id: 155935880
  name: Masjid Al-Hidayah
  alt_name: []
  latitude: -6.260520471491787
  longitude: 106.87008469196189
  type: way
  amenity_type: place_of_worship
- id: 155935897
  name: Masjid Jami' Ar Rahman
  alt_name: []
  latitude: -6.260412150000004
  longitude: 106.87163864999998
  type: way
  amenity_type: place_of_worship
- id: 155935898
  name: Masjid Daarul Munadzipin
  alt_name: []
  latitude: -6.2614291953772065
  longitude: 106.87179591012467
  type: way
  amenity_type: place_of_worship
- id: 155935899
  name: Masjid Ditkes
  alt_name: []
  latitude: -6.260632747065574
  longitude: 106.86541043482886
  type: way
  amenity_type: place_of_worship
- id: 155935900
  name: Masjid Nur Saddah
  alt_name: []
  latitude: -6.2687774796489535
  longitude: 106.86462985623929
  type: way
  amenity_type: place_of_worship
- id: 155935902
  name: Mushola Darrusalam
  alt_name:
  - Musholla Darrusalam
  latitude: -6.264403513651044
  longitude: 106.85696795023685
  type: way
  amenity_type: place_of_worship
- id: 155936454
  name: Masjid Al Munir
  alt_name: []
  latitude: -6.269052458747614
  longitude: 106.87604182112999
  type: way
  amenity_type: place_of_worship
- id: 155936988
  name: Masjid Jami' Daarussalam
  alt_name: []
  latitude: -6.3076952370619574
  longitude: 106.92092710444838
  type: way
  amenity_type: place_of_worship
- id: 155936991
  name: Masjid Al Ikhlas
  alt_name: []
  latitude: -6.307378055518001
  longitude: 106.91557131968884
  type: way
  amenity_type: place_of_worship
- id: 155937264
  name: Masjid Al-Mizan
  alt_name: []
  latitude: -6.217577277082542
  longitude: 106.93346107105546
  type: way
  amenity_type: place_of_worship
- id: 155938271
  name: Gereja Katolik St. Yoseph
  alt_name: []
  latitude: -6.20813929591102
  longitude: 106.8597902395565
  type: way
  amenity_type: place_of_worship
- id: 155938652
  name: Masjid Al-Ikhlas
  alt_name: []
  latitude: -6.279370074855024
  longitude: 106.85068699848594
  type: way
  amenity_type: place_of_worship
- id: 155938654
  name: Masjid Jami' Al Mabruk
  alt_name: []
  latitude: -6.286105682809063
  longitude: 106.85329240692147
  type: way
  amenity_type: place_of_worship
- id: 155938656
  name: Masjid Al-Sholihien
  alt_name: []
  latitude: -6.268925330500831
  longitude: 106.85902875781152
  type: way
  amenity_type: place_of_worship
- id: 155938658
  name: Mushala Al Barkah
  alt_name: []
  latitude: -6.2820420176573935
  longitude: 106.85400590101605
  type: way
  amenity_type: place_of_worship
- id: 155941024
  name: Gereja Budi Murni
  alt_name: []
  latitude: -6.331408052325283
  longitude: 106.89571017113039
  type: way
  amenity_type: place_of_worship
- id: 155941043
  name: Masjid Jami Al Muttaqiin
  alt_name: []
  latitude: -6.333139944863476
  longitude: 106.89497878176871
  type: way
  amenity_type: place_of_worship
- id: 155941046
  name: Masjid Nurhidayatulloh
  alt_name: []
  latitude: -6.332184070730871
  longitude: 106.8903674598694
  type: way
  amenity_type: place_of_worship
- id: 155941424
  name: Masjid Baiturrahman
  alt_name: []
  latitude: -6.2266673591613175
  longitude: 106.92773908264913
  type: way
  amenity_type: place_of_worship
- id: 155941445
  name: Masjid Raya Al-Fatah
  alt_name: []
  latitude: -6.206138889356618
  longitude: 106.86416777559134
  type: way
  amenity_type: place_of_worship
- id: 155941446
  name: Masjid Jami Al-Ikhlas
  alt_name: []
  latitude: -6.204269672658299
  longitude: 106.86184712592673
  type: way
  amenity_type: place_of_worship
- id: 155941450
  name: Mushola Al Istiqomah
  alt_name: []
  latitude: -6.204621287581146
  longitude: 106.86374215734726
  type: way
  amenity_type: place_of_worship
- id: 155941571
  name: Masjid Al-Ghurabaa
  alt_name: []
  latitude: -6.199351907327141
  longitude: 106.8920549240454
  type: way
  amenity_type: place_of_worship
- id: 155941572
  name: Masjid Suhada
  alt_name: []
  latitude: -6.195697772327664
  longitude: 106.89570278803514
  type: way
  amenity_type: place_of_worship
- id: 155941698
  name: Masjid Nurussa'adah
  alt_name: []
  latitude: -6.198491160011853
  longitude: 106.85840375671401
  type: way
  amenity_type: place_of_worship
- id: 155941699
  name: Masjid Jami Darussalam
  alt_name: []
  latitude: -6.201821328361855
  longitude: 106.85997981945914
  type: way
  amenity_type: place_of_worship
- id: 155945146
  name: Masjid Daarussalaam
  alt_name: []
  latitude: -6.293489905373478
  longitude: 106.85406561807812
  type: way
  amenity_type: place_of_worship
- id: 155945149
  name: Masjid Jami' Hidayatul Musyawaroh
  alt_name: []
  latitude: -6.290908080393817
  longitude: 106.85088505922278
  type: way
  amenity_type: place_of_worship
- id: 155945249
  name: Gereja Pantekosta
  alt_name: []
  latitude: -6.265341599999999
  longitude: 106.87384815
  type: way
  amenity_type: place_of_worship
- id: 155945251
  name: Gereja Pantekosta
  alt_name: []
  latitude: -6.273104130391392
  longitude: 106.87668196563679
  type: way
  amenity_type: place_of_worship
- id: 155945262
  name: Masjid Al Abror
  alt_name: []
  latitude: -6.282656949999999
  longitude: 106.87755834999999
  type: way
  amenity_type: place_of_worship
- id: 155945265
  name: Masjid Jami' Al Anshor
  alt_name: []
  latitude: -6.274192904355958
  longitude: 106.88101817333597
  type: way
  amenity_type: place_of_worship
- id: 155945266
  name: Masjid Al Barokah
  alt_name: []
  latitude: -6.273662168200733
  longitude: 106.87589661584883
  type: way
  amenity_type: place_of_worship
- id: 155945267
  name: Masjid Baitul Ikhlas
  alt_name: []
  latitude: -6.271825761098569
  longitude: 106.87562939784964
  type: way
  amenity_type: place_of_worship
- id: 155945268
  name: Masjid Al Ihsan
  alt_name: []
  latitude: -6.272996722290882
  longitude: 106.87375018833917
  type: way
  amenity_type: place_of_worship
- id: 155945271
  name: Masjid Al Muthohirin
  alt_name: []
  latitude: -6.2746327
  longitude: 106.879305
  type: way
  amenity_type: place_of_worship
- id: 155945272
  name: Masjid Al Mukhlisin
  alt_name: []
  latitude: -6.276303057193071
  longitude: 106.87829638677083
  type: way
  amenity_type: place_of_worship
- id: 155945273
  name: Masjid At Taubah
  alt_name: []
  latitude: -6.274414382191515
  longitude: 106.87715231239463
  type: way
  amenity_type: place_of_worship
- id: 155945274
  name: Masjid Hasbi Al Bahri
  alt_name: []
  latitude: -6.273289869083584
  longitude: 106.88049816248997
  type: way
  amenity_type: place_of_worship
- id: 155945276
  name: Masjid Jami Nurul Huda
  alt_name: []
  latitude: -6.274809859100843
  longitude: 106.87545969872518
  type: way
  amenity_type: place_of_worship
- id: 155945277
  name: Masjid Jami Nurul Huda
  alt_name: []
  latitude: -6.26972826980865
  longitude: 106.8767309957678
  type: way
  amenity_type: place_of_worship
- id: 155945583
  name: Masjid Jami' Al Hidayah
  alt_name: []
  latitude: -6.252812420049125
  longitude: 106.85913724391017
  type: way
  amenity_type: place_of_worship
- id: 155945606
  name: Masjid Jami' Al-Ikhlas
  alt_name: []
  latitude: -6.256312824903852
  longitude: 106.86149064192402
  type: way
  amenity_type: place_of_worship
- id: 155945614
  name: Gereja Kristen Pasundan
  alt_name: []
  latitude: -6.256553765969361
  longitude: 106.86261140919194
  type: way
  amenity_type: place_of_worship
- id: 155945627
  name: Masjid As-Syakinah
  alt_name: []
  latitude: -6.250370813031996
  longitude: 106.86392352098555
  type: way
  amenity_type: place_of_worship
- id: 155945640
  name: Masjid Baitul Khuda
  alt_name: []
  latitude: -6.254130177573354
  longitude: 106.86557697426332
  type: way
  amenity_type: place_of_worship
- id: 155946249
  name: Masjid Annashriyah
  alt_name: []
  latitude: -6.195517727852747
  longitude: 106.86299561301428
  type: way
  amenity_type: place_of_worship
- id: 155946257
  name: Masjid At Taqwa
  alt_name: []
  latitude: -6.198040178206789
  longitude: 106.86711490102383
  type: way
  amenity_type: place_of_worship
- id: 155946260
  name: Masjid Al Barkah
  alt_name: []
  latitude: -6.193892700000001
  longitude: 106.86463700000002
  type: way
  amenity_type: place_of_worship
- id: 155946449
  name: Masjid Al Haromain
  alt_name: []
  latitude: -6.344702900000001
  longitude: 106.9168592
  type: way
  amenity_type: place_of_worship
- id: 155946452
  name: Masjid Jami' Nurul Ihsan
  alt_name: []
  latitude: -6.354413978473901
  longitude: 106.9109600963644
  type: way
  amenity_type: place_of_worship
- id: 155947037
  name: Masjid Al Hikmah Hidayah
  alt_name: []
  latitude: -6.317246903701015
  longitude: 106.91141700756356
  type: way
  amenity_type: place_of_worship
- id: 155947049
  name: Masjid Baiturahman
  alt_name: []
  latitude: -6.309097928473727
  longitude: 106.91059048745409
  type: way
  amenity_type: place_of_worship
- id: 155948414
  name: Masjid Al Khoir
  alt_name: []
  latitude: -6.338554206670704
  longitude: 106.90000237610863
  type: way
  amenity_type: place_of_worship
- id: 155948418
  name: Masjid Jami' Birrul Waalidain
  alt_name: []
  latitude: -6.340061079018829
  longitude: 106.90877300781978
  type: way
  amenity_type: place_of_worship
- id: 155948487
  name: Gereja Santo Yoakhim
  alt_name: []
  latitude: -6.221081913025188
  longitude: 106.93418300699851
  type: way
  amenity_type: place_of_worship
- id: 155949205
  name: Masjid Jami' Al Hikmah
  alt_name: []
  latitude: -6.213585999999999
  longitude: 106.86365935
  type: way
  amenity_type: place_of_worship
- id: 155949283
  name: Masjid Al Muttaqin
  alt_name: []
  latitude: -6.345767668226107
  longitude: 106.87880154511906
  type: way
  amenity_type: place_of_worship
- id: 155949353
  name: Masjid Jami Al-Kautsar
  alt_name: []
  latitude: -6.21000555702688
  longitude: 106.9237653211899
  type: way
  amenity_type: place_of_worship
- id: 155949354
  name: Masjid Jami Ar Ridho
  alt_name: []
  latitude: -6.199326238700302
  longitude: 106.92138596526895
  type: way
  amenity_type: place_of_worship
- id: 155949362
  name: Masjid Jami Bunyan Nurul Falah
  alt_name: []
  latitude: -6.2022814316834385
  longitude: 106.92031415397645
  type: way
  amenity_type: place_of_worship
- id: 155950175
  name: Masjid Al Mujaddid
  alt_name: []
  latitude: -6.183191150271003
  longitude: 106.87827095320071
  type: way
  amenity_type: place_of_worship
- id: 155950340
  name: Masjid Miftahul Jannah
  alt_name: []
  latitude: -6.250473699999999
  longitude: 106.9034439
  type: way
  amenity_type: place_of_worship
- id: 155950343
  name: Masjid Jami Miftahul Khoir
  alt_name: []
  latitude: -6.257055395875417
  longitude: 106.90914143797539
  type: way
  amenity_type: place_of_worship
- id: 155950348
  name: Masjid Al Hidayah
  alt_name: []
  latitude: -6.250333153682707
  longitude: 106.90242496771465
  type: way
  amenity_type: place_of_worship
- id: 155950783
  name: Masjid Jami' Nurul Hidayah
  alt_name: []
  latitude: -6.1884847192402725
  longitude: 106.92291204046101
  type: way
  amenity_type: place_of_worship
- id: 155950792
  name: Masjid Bahrul Ulum
  alt_name: []
  latitude: -6.336483922051305
  longitude: 106.89834186310588
  type: way
  amenity_type: place_of_worship
- id: 155950793
  name: Masjid Jami' An Nur
  alt_name: []
  latitude: -6.32839615
  longitude: 106.9020244
  type: way
  amenity_type: place_of_worship
- id: 155950880
  name: Masjid Al Farihin
  alt_name: []
  latitude: -6.213206799999999
  longitude: 106.86738864999998
  type: way
  amenity_type: place_of_worship
- id: 155950881
  name: Masjid At-Taubah
  alt_name: []
  latitude: -6.213746034209651
  longitude: 106.87234468202627
  type: way
  amenity_type: place_of_worship
- id: 155950882
  name: Masjid Jami Pisangan
  alt_name: []
  latitude: -6.213009546085278
  longitude: 106.86627332066598
  type: way
  amenity_type: place_of_worship
- id: 155950884
  name: Masjid At Thoriyah
  alt_name: []
  latitude: -6.2119779095822345
  longitude: 106.87102764839078
  type: way
  amenity_type: place_of_worship
- id: 155950893
  name: Masjid Sabila Murtadin
  alt_name: []
  latitude: -6.211975588977537
  longitude: 106.8687931298812
  type: way
  amenity_type: place_of_worship
- id: 155950948
  name: Mesjid Attawabin
  alt_name: []
  latitude: -6.218979875941483
  longitude: 106.86205515480347
  type: way
  amenity_type: place_of_worship
- id: 155950956
  name: Masjid Ruhul Islam
  alt_name: []
  latitude: -6.21472685
  longitude: 106.85836779999998
  type: way
  amenity_type: place_of_worship
- id: 155950963
  name: Mushola Khairul Anam
  alt_name: []
  latitude: -6.21398822459339
  longitude: 106.85870034807907
  type: way
  amenity_type: place_of_worship
- id: 155950971
  name: As Syuhada
  alt_name: []
  latitude: -6.192791097811681
  longitude: 106.90545218725876
  type: way
  amenity_type: place_of_worship
- id: 155951045
  name: Gereja kristen mathuria
  alt_name: []
  latitude: -6.226044885488375
  longitude: 106.88304396964543
  type: way
  amenity_type: place_of_worship
- id: 155951061
  name: Masjid Al- Abror
  alt_name: []
  latitude: -6.225193112762583
  longitude: 106.87921861938754
  type: way
  amenity_type: place_of_worship
- id: 155951062
  name: Masjid Jami Al-Ghoniyah
  alt_name: []
  latitude: -6.22248745
  longitude: 106.88246864999999
  type: way
  amenity_type: place_of_worship
- id: 155951065
  name: Masjid Al-Falah
  alt_name: []
  latitude: -6.218099983872289
  longitude: 106.88628900920162
  type: way
  amenity_type: place_of_worship
- id: 155951068
  name: Masjid Jami' Al Hidayah
  alt_name: []
  latitude: -6.237100198272752
  longitude: 106.87947647214662
  type: way
  amenity_type: place_of_worship
- id: 155951071
  name: Masjid Al Qadar
  alt_name: []
  latitude: -6.220876004226849
  longitude: 106.88301134832564
  type: way
  amenity_type: place_of_worship
- id: 155951072
  name: Masjid Jami' Asy- Syafi'iyah
  alt_name: []
  latitude: -6.22737671866158
  longitude: 106.87808486756924
  type: way
  amenity_type: place_of_worship
- id: 155951075
  name: Masjid Misbahul Amal
  alt_name: []
  latitude: -6.22146092725529
  longitude: 106.88298867627427
  type: way
  amenity_type: place_of_worship
- id: 155951077
  name: Masjid Istiqomah
  alt_name: []
  latitude: -6.2215869
  longitude: 106.90762430000001
  type: way
  amenity_type: place_of_worship
- id: 155951082
  name: Masjid An Nur
  alt_name: []
  latitude: -6.218613225813744
  longitude: 106.92271867036881
  type: way
  amenity_type: place_of_worship
- id: 155951128
  name: GKI Buaran
  alt_name: []
  latitude: -6.21907805
  longitude: 106.92058055
  type: way
  amenity_type: place_of_worship
- id: 155951144
  name: Vihara Silaparamita
  alt_name: []
  latitude: -6.2181400623412175
  longitude: 106.88699456538778
  type: way
  amenity_type: place_of_worship
- id: 155951176
  name: Masjid Al Falah
  alt_name: []
  latitude: -6.315146511637788
  longitude: 106.89573385213095
  type: way
  amenity_type: place_of_worship
- id: 155951230
  name: HKBP Kramat Jati
  alt_name: []
  latitude: -6.279670494210506
  longitude: 106.87161992475176
  type: way
  amenity_type: place_of_worship
- id: 155951234
  name: Gereja Santo Markus
  alt_name: []
  latitude: -6.265377178639549
  longitude: 106.86867171376694
  type: way
  amenity_type: place_of_worship
- id: 155951257
  name: Masjid Jami' Al-Amin
  alt_name: []
  latitude: -6.271463750000001
  longitude: 106.8679099
  type: way
  amenity_type: place_of_worship
- id: 155951258
  name: Masjid Raya Al-Huda
  alt_name: []
  latitude: -6.263954276602796
  longitude: 106.86737010615894
  type: way
  amenity_type: place_of_worship
- id: 155951259
  name: Masjid Jami'at Tarbiyah
  alt_name: []
  latitude: -6.277488974203131
  longitude: 106.8701844131657
  type: way
  amenity_type: place_of_worship
- id: 155951262
  name: Masjid Hikmatul Ilmi
  alt_name: []
  latitude: -6.264408849033768
  longitude: 106.87030805805477
  type: way
  amenity_type: place_of_worship
- id: 155951268
  name: Al-Idhwan
  alt_name: []
  latitude: -6.2734407582451786
  longitude: 106.86811327131943
  type: way
  amenity_type: place_of_worship
- id: 155951965
  name: Masjid Jami Baitul Maghfiroh
  alt_name: []
  latitude: -6.337189864773118
  longitude: 106.90589534250269
  type: way
  amenity_type: place_of_worship
- id: 155951969
  name: Masjid Jami Nurul Huda
  alt_name: []
  latitude: -6.3322916172768124
  longitude: 106.90221829962277
  type: way
  amenity_type: place_of_worship
- id: 155952125
  name: Masjid Transito
  alt_name: []
  latitude: -6.2464552
  longitude: 106.94200855
  type: way
  amenity_type: place_of_worship
- id: 155952127
  name: Masjid Al Falah
  alt_name: []
  latitude: -6.240330150000001
  longitude: 106.9387114
  type: way
  amenity_type: place_of_worship
- id: 155952561
  name: Gereja Katolik ST. Aloysius Gonzaga
  alt_name: []
  latitude: -6.316855410549829
  longitude: 106.86172747229432
  type: way
  amenity_type: place_of_worship
- id: 155952566
  name: Masjid Al-Muqarrabin
  alt_name: []
  latitude: -6.330622180662565
  longitude: 106.86223683897671
  type: way
  amenity_type: place_of_worship
- id: 155952655
  name: Masjid Al Bashor
  alt_name: []
  latitude: -6.2984142499999995
  longitude: 106.87613719999999
  type: way
  amenity_type: place_of_worship
- id: 155952657
  name: Masjid Ar Rohman
  alt_name: []
  latitude: -6.292294026363142
  longitude: 106.87933793650255
  type: way
  amenity_type: place_of_worship
- id: 155952660
  name: Masjid Baiturrahman
  alt_name: []
  latitude: -6.295257285894383
  longitude: 106.8753782894821
  type: way
  amenity_type: place_of_worship
- id: 155952665
  name: Masjid Baitussalam
  alt_name: []
  latitude: -6.287025022242904
  longitude: 106.87425355194976
  type: way
  amenity_type: place_of_worship
- id: 155952666
  name: Masjid Jami' Al-Fattah
  alt_name: []
  latitude: -6.296263802691003
  longitude: 106.87899570364367
  type: way
  amenity_type: place_of_worship
- id: 155952821
  name: Masjid Al-Ishlah
  alt_name: []
  latitude: -6.218892655183606
  longitude: 106.9324712476543
  type: way
  amenity_type: place_of_worship
- id: 155952822
  name: Masjid Al-Muhajirin
  alt_name: []
  latitude: -6.219614142535406
  longitude: 106.93543792409413
  type: way
  amenity_type: place_of_worship
- id: 155952824
  name: Masjid Al-Mujahidin
  alt_name: []
  latitude: -6.218588976083887
  longitude: 106.93631634280368
  type: way
  amenity_type: place_of_worship
- id: 155953390
  name: Masjid Baiturrahman
  alt_name: []
  latitude: -6.27591655
  longitude: 106.87681955000001
  type: way
  amenity_type: place_of_worship
- id: 155953459
  name: Baitul Taqwa
  alt_name: []
  latitude: -6.207294618749924
  longitude: 106.87572631700618
  type: way
  amenity_type: place_of_worship
- id: 155953460
  name: Nurul Iman
  alt_name: []
  latitude: -6.213308392598436
  longitude: 106.88213932665968
  type: way
  amenity_type: place_of_worship
- id: 155953462
  name: Masjid Al-Huda
  alt_name: []
  latitude: -6.210343053381277
  longitude: 106.8838953495394
  type: way
  amenity_type: place_of_worship
- id: 155953496
  name: Masjid Miftahul Jannah
  alt_name: []
  latitude: -6.207731193595632
  longitude: 106.8787552253547
  type: way
  amenity_type: place_of_worship
- id: 155953499
  name: Musholla Al-Barokah
  alt_name: []
  latitude: -6.20942399602368
  longitude: 106.87885607747202
  type: way
  amenity_type: place_of_worship
- id: 155953584
  name: Masjid Al-Akbar
  alt_name: []
  latitude: -6.234649888008197
  longitude: 106.88789082122332
  type: way
  amenity_type: place_of_worship
- id: 155953585
  name: Masjid Al-Marzuqiyah
  alt_name: []
  latitude: -6.226403075215581
  longitude: 106.89189465280657
  type: way
  amenity_type: place_of_worship
- id: 155953586
  name: Masjid Jami Assyakirin
  alt_name: []
  latitude: -6.239073124341255
  longitude: 106.88968984045175
  type: way
  amenity_type: place_of_worship
- id: 155953588
  name: Masjid Baitul Hakim
  alt_name: []
  latitude: -6.231796528676189
  longitude: 106.88939807033792
  type: way
  amenity_type: place_of_worship
- id: 155953594
  name: Masjid Al-Iman
  alt_name: []
  latitude: -6.222566963500878
  longitude: 106.8874526216874
  type: way
  amenity_type: place_of_worship
- id: 155953671
  name: HKBP Cilangkap
  alt_name: []
  latitude: -6.333412258544243
  longitude: 106.89781939771758
  type: way
  amenity_type: place_of_worship
- id: 155953697
  name: Masjid Jami Al Baidho
  alt_name: []
  latitude: -6.295769664930487
  longitude: 106.8986357610107
  type: way
  amenity_type: place_of_worship
- id: 155953698
  name: Masjid Jami Al Hakim
  alt_name: []
  latitude: -6.291477627567726
  longitude: 106.90179905548796
  type: way
  amenity_type: place_of_worship
- id: 155953699
  name: Masjid Al Hidayah
  alt_name: []
  latitude: -6.287790547431182
  longitude: 106.8982976532667
  type: way
  amenity_type: place_of_worship
- id: 155953700
  name: Mushala Darusalam
  alt_name: []
  latitude: -6.292634991522379
  longitude: 106.90075177679272
  type: way
  amenity_type: place_of_worship
- id: 155953916
  name: Masjid Jami' Al Hidayah
  alt_name: []
  latitude: -6.2414612
  longitude: 106.89415445000003
  type: way
  amenity_type: place_of_worship
- id: 155953984
  name: Masjid Jami' Al-Ikhlash
  alt_name: []
  latitude: -6.215084390206682
  longitude: 106.95399504065506
  type: way
  amenity_type: place_of_worship
- id: 155953985
  name: Masjid Jamie At-Tadzkiroh
  alt_name: []
  latitude: -6.208145249999999
  longitude: 106.96278185
  type: way
  amenity_type: place_of_worship
- id: 155954009
  name: Gereja Kristen Pasundan
  alt_name: []
  latitude: -6.2176652
  longitude: 106.95125560000002
  type: way
  amenity_type: place_of_worship
- id: 155954016
  name: Masjid Jami At Taqwa
  alt_name: []
  latitude: -6.203085249023401
  longitude: 106.9599943263696
  type: way
  amenity_type: place_of_worship
- id: 155954017
  name: Masjid Nurul Ichsan
  alt_name: []
  latitude: -6.2185194920571885
  longitude: 106.95215105979537
  type: way
  amenity_type: place_of_worship
- id: 155954156
  name: Mushala Al-Ikhlas
  alt_name: []
  latitude: -6.294143850489222
  longitude: 106.90232860119886
  type: way
  amenity_type: place_of_worship
- id: 155954182
  name: Gereja Menara Iman
  alt_name: []
  latitude: -6.2254652332323275
  longitude: 106.9143123517011
  type: way
  amenity_type: place_of_worship
- id: 155954187
  name: Masjid Jamie Al Falah
  alt_name: []
  latitude: -6.23658975
  longitude: 106.91696845
  type: way
  amenity_type: place_of_worship
- id: 155954188
  name: Masjid Jami Al Abidin
  alt_name: []
  latitude: -6.228998700000002
  longitude: 106.90405009999999
  type: way
  amenity_type: place_of_worship
- id: 155954189
  name: Masjid Jami' Al-Barkah
  alt_name: []
  latitude: -6.229292179695001
  longitude: 106.91219402305907
  type: way
  amenity_type: place_of_worship
- id: 155954190
  name: Masjid Taman Duren Sawit
  alt_name: []
  latitude: -6.2421850913041
  longitude: 106.91325289963507
  type: way
  amenity_type: place_of_worship
- id: 155954191
  name: Masjid Al Hikmah
  alt_name: []
  latitude: -6.238807292088679
  longitude: 106.91281648695774
  type: way
  amenity_type: place_of_worship
- id: 155954193
  name: Masjid Jami' Al-Mujtaba
  alt_name: []
  latitude: -6.245852099999999
  longitude: 106.9185164
  type: way
  amenity_type: place_of_worship
- id: 155954195
  name: Masjid An Nur
  alt_name: []
  latitude: -6.236181492754361
  longitude: 106.92284621324339
  type: way
  amenity_type: place_of_worship
- id: 155954197
  name: Masjid Jami Baiturrahman
  alt_name: []
  latitude: -6.226309605849322
  longitude: 106.91533308544084
  type: way
  amenity_type: place_of_worship
- id: 155954201
  name: Masjid Nurul Qalbi
  alt_name: []
  latitude: -6.23595313046476
  longitude: 106.92088225502361
  type: way
  amenity_type: place_of_worship
- id: 155954204
  name: Masjid Riyadhus Salihin
  alt_name: []
  latitude: -6.246708000000001
  longitude: 106.91260940000001
  type: way
  amenity_type: place_of_worship
- id: 155954209
  name: Mushola
  alt_name: []
  latitude: -6.228154967200738
  longitude: 106.90185857690302
  type: way
  amenity_type: place_of_worship
- id: 155954211
  name: Mushola Al Hidayah
  alt_name: []
  latitude: -6.2300225
  longitude: 106.9153042
  type: way
  amenity_type: place_of_worship
- id: 155954255
  name: Masjid Nurul Hidayah
  alt_name: []
  latitude: -6.31067564648816
  longitude: 106.86879543083404
  type: way
  amenity_type: place_of_worship
- id: 155954639
  name: Masjid Jami' At-Taqwa
  alt_name: []
  latitude: -6.225576188439255
  longitude: 106.93651596850796
  type: way
  amenity_type: place_of_worship
- id: 155954643
  name: Masjid Al-Faizin
  alt_name: []
  latitude: -6.223867606417185
  longitude: 106.93733262210644
  type: way
  amenity_type: place_of_worship
- id: 155954645
  name: Masjid Al-Hidayah
  alt_name: []
  latitude: -6.225414028100999
  longitude: 106.93284135948709
  type: way
  amenity_type: place_of_worship
- id: 155954652
  name: Masjid Al-Maghfirah
  alt_name: []
  latitude: -6.222851236426441
  longitude: 106.93420898264439
  type: way
  amenity_type: place_of_worship
- id: 155954659
  name: Masjid Babussalam
  alt_name: []
  latitude: -6.225315612380532
  longitude: 106.93492082101945
  type: way
  amenity_type: place_of_worship
- id: 155955314
  name: Masjid Jami Al Hidayah
  alt_name: []
  latitude: -6.2127225579122705
  longitude: 106.92021273740772
  type: way
  amenity_type: place_of_worship
- id: 155955316
  name: Masjid Al Ikhlas
  alt_name: []
  latitude: -6.19930325124454
  longitude: 106.9307639759922
  type: way
  amenity_type: place_of_worship
- id: 155955318
  name: Masjid Jami At Taufiqiyyah
  alt_name: []
  latitude: -6.19606845
  longitude: 106.92439005000001
  type: way
  amenity_type: place_of_worship
- id: 155955321
  name: Masjid Jami Nurul Amal
  alt_name: []
  latitude: -6.208044269550747
  longitude: 106.90387815328049
  type: way
  amenity_type: place_of_worship
- id: 155955536
  name: Masjid Al Ikhlas
  alt_name: []
  latitude: -6.244482445658941
  longitude: 106.9028379315315
  type: way
  amenity_type: place_of_worship
- id: 155955538
  name: GKI Cipinang Indah
  alt_name: []
  latitude: -6.23710635
  longitude: 106.89349554999997
  type: way
  amenity_type: place_of_worship
- id: 155955547
  name: Masjid An Nur
  alt_name: []
  latitude: -6.235360800000001
  longitude: 106.89680555000001
  type: way
  amenity_type: place_of_worship
- id: 155955570
  name: Masjid Baitul Latif
  alt_name: []
  latitude: -6.231036570158378
  longitude: 106.8963402333494
  type: way
  amenity_type: place_of_worship
- id: 155955590
  name: Mushala Al Ikhlas
  alt_name: []
  latitude: -6.241755975162834
  longitude: 106.89699105822501
  type: way
  amenity_type: place_of_worship
- id: 155955628
  name: Masjid Al Amin
  alt_name: []
  latitude: -6.242402323544196
  longitude: 106.91045607392752
  type: way
  amenity_type: place_of_worship
- id: 155955629
  name: Masjid Al Baidwi
  alt_name: []
  latitude: -6.227047346695583
  longitude: 106.90116036324049
  type: way
  amenity_type: place_of_worship
- id: 155955647
  name: Masjid Al Hidayah
  alt_name: []
  latitude: -6.233337817071698
  longitude: 106.89923934612614
  type: way
  amenity_type: place_of_worship
- id: 155955668
  name: Gereja Santa Anna
  alt_name: []
  latitude: -6.234706613412904
  longitude: 106.90965778114897
  type: way
  amenity_type: place_of_worship
- id: 155955669
  name: Masjid Jami' Ar-Rahman
  alt_name: []
  latitude: -6.242606518807139
  longitude: 106.90167051541464
  type: way
  amenity_type: place_of_worship
- id: 155955688
  name: Masjid Baitut Tahmid
  alt_name: []
  latitude: -6.235172401838568
  longitude: 106.90007077523292
  type: way
  amenity_type: place_of_worship
- id: 155955693
  name: Mushala Al Barakah
  alt_name: []
  latitude: -6.24271595213145
  longitude: 106.89960649638165
  type: way
  amenity_type: place_of_worship
- id: 155955703
  name: Masjid Al Huda
  alt_name: []
  latitude: -6.224527680205951
  longitude: 106.89995493400812
  type: way
  amenity_type: place_of_worship
- id: 155955709
  name: Masjid Jami' Asy-Syaakiriin
  alt_name: []
  latitude: -6.236020299999999
  longitude: 106.90496150000001
  type: way
  amenity_type: place_of_worship
- id: 155956009
  name: Masjid Asy Syakirin
  alt_name: []
  latitude: -6.189550662694569
  longitude: 106.90702978943698
  type: way
  amenity_type: place_of_worship
- id: 155956156
  name: Masjid Al Hikmah
  alt_name: []
  latitude: -6.191621595596192
  longitude: 106.90064143663855
  type: way
  amenity_type: place_of_worship
- id: 155956160
  name: Al Hurriyah
  alt_name: []
  latitude: -6.191626350000001
  longitude: 106.8917229
  type: way
  amenity_type: place_of_worship
- id: 155956163
  name: Aula Gereja HKBP Raya Pulo Asem
  alt_name: []
  latitude: -6.18918769345455
  longitude: 106.89570147266457
  type: way
  amenity_type: place_of_worship
- id: 155956166
  name: Masjid Baitul Mu'minin
  alt_name: []
  latitude: -6.198868592231379
  longitude: 106.89035787628846
  type: way
  amenity_type: place_of_worship
- id: 155956182
  name: Masjid Jami' Nurul Huda
  alt_name: []
  latitude: -6.189478013355447
  longitude: 106.89139180450353
  type: way
  amenity_type: place_of_worship
- id: 155956194
  name: Masjid Jami' Alwasthiyah
  alt_name: []
  latitude: -6.189547700000001
  longitude: 106.90282970000001
  type: way
  amenity_type: place_of_worship
- id: 155956195
  name: Masjid Raya Pulo Asem
  alt_name: []
  latitude: -6.189503017255473
  longitude: 106.89551798165384
  type: way
  amenity_type: place_of_worship
- id: 155956202
  name: Masjid Nuur Ramadhan
  alt_name: []
  latitude: -6.190433875283936
  longitude: 106.89175060908175
  type: way
  amenity_type: place_of_worship
- id: 155956232
  name: Masjid Shidoqul Iman
  alt_name: []
  latitude: -6.190345549999998
  longitude: 106.8968619
  type: way
  amenity_type: place_of_worship
- id: 155956546
  name: Masjid Salman Al Farisi
  alt_name: []
  latitude: -6.188824247919453
  longitude: 106.87761983271483
  type: way
  amenity_type: place_of_worship
- id: 155956671
  name: Huria Kristen Batak Protestan (HKBP)
  alt_name: []
  latitude: -6.250732474776335
  longitude: 106.87525211994857
  type: way
  amenity_type: place_of_worship
- id: 155957050
  name: Masjid An-Nursiyah
  alt_name: []
  latitude: -6.198595882899425
  longitude: 106.86582669661959
  type: way
  amenity_type: place_of_worship
- id: 155957057
  name: Masjid Jami'Al Falah
  alt_name: []
  latitude: -6.199934736639855
  longitude: 106.87035707623401
  type: way
  amenity_type: place_of_worship
- id: 155957058
  name: Masjid Nururrahmah
  alt_name: []
  latitude: -6.199488040265021
  longitude: 106.86698825764859
  type: way
  amenity_type: place_of_worship
- id: 155957059
  name: Masjid Jami At-Ataubah
  alt_name: []
  latitude: -6.2043271960530815
  longitude: 106.86760502835091
  type: way
  amenity_type: place_of_worship
- id: 155957062
  name: Masjid Baittulroh
  alt_name: []
  latitude: -6.206910267866751
  longitude: 106.87082479293386
  type: way
  amenity_type: place_of_worship
- id: 155957114
  name: As Salafiyah
  alt_name: []
  latitude: -6.20229705910977
  longitude: 106.90146711271217
  type: way
  amenity_type: place_of_worship
- id: 155957228
  name: Masjid Istiqomah
  alt_name: []
  latitude: -6.283946670562188
  longitude: 106.86040311462904
  type: way
  amenity_type: place_of_worship
- id: 155957299
  name: Gereja Kristen Indonesia Cawang
  alt_name: []
  latitude: -6.243583848284523
  longitude: 106.87317823336204
  type: way
  amenity_type: place_of_worship
- id: 155957304
  name: Gereja Masehi Advent Hari Ketujuh
  alt_name: []
  latitude: -6.2441683
  longitude: 106.87264295000001
  type: way
  amenity_type: place_of_worship
- id: 155957313
  name: Masjid Al-Barokah
  alt_name: []
  latitude: -6.240119039907022
  longitude: 106.87408910746768
  type: way
  amenity_type: place_of_worship
- id: 155957315
  name: Masjid Jami Al-Ikhlashiyah
  alt_name: []
  latitude: -6.226823692637252
  longitude: 106.87400308695338
  type: way
  amenity_type: place_of_worship
- id: 155957316
  name: Masjid Jami' At Taubah
  alt_name: []
  latitude: -6.232560749999999
  longitude: 106.87268859999999
  type: way
  amenity_type: place_of_worship
- id: 155957317
  name: Masjid Jami Al-Bahri
  alt_name: []
  latitude: -6.234450875421099
  longitude: 106.87652285812253
  type: way
  amenity_type: place_of_worship
- id: 155957460
  name: Masjid Al-Furqon
  alt_name: []
  latitude: -6.231649793714122
  longitude: 106.93842801668356
  type: way
  amenity_type: place_of_worship
- id: 155957462
  name: Masjid Jami' Al-Ikhlas
  alt_name: []
  latitude: -6.228717122402117
  longitude: 106.94370502563098
  type: way
  amenity_type: place_of_worship
- id: 155957463
  name: Masjid Al-Muhajirin
  alt_name: []
  latitude: -6.221248379564065
  longitude: 106.94236101507529
  type: way
  amenity_type: place_of_worship
- id: 155957465
  name: Masjid An-Najibah
  alt_name: []
  latitude: -6.2357171000000005
  longitude: 106.94356035000001
  type: way
  amenity_type: place_of_worship
- id: 155957469
  name: Masjid Jami Ad Nadwa
  alt_name: []
  latitude: -6.225024226152788
  longitude: 106.94575160126463
  type: way
  amenity_type: place_of_worship
- id: 155957471
  name: Masjid Darul Muttaqin
  alt_name: []
  latitude: -6.224348725062629
  longitude: 106.93991081201122
  type: way
  amenity_type: place_of_worship
- id: 155957474
  name: Masjid Jami As-Saadah
  alt_name: []
  latitude: -6.223545362283491
  longitude: 106.93925382299281
  type: way
  amenity_type: place_of_worship
- id: 155957477
  name: Masjid Jami'atul Ummat
  alt_name: []
  latitude: -6.221477600721645
  longitude: 106.94912216695197
  type: way
  amenity_type: place_of_worship
- id: 155957482
  name: Masjid Nururrohman
  alt_name: []
  latitude: -6.218684685119112
  longitude: 106.94449882275795
  type: way
  amenity_type: place_of_worship
- id: 155957485
  name: Masjid Nurul Islam
  alt_name: []
  latitude: -6.230680357162212
  longitude: 106.9433754418853
  type: way
  amenity_type: place_of_worship
- id: 155957539
  name: Wihara Mudita
  alt_name: []
  latitude: -6.2345583
  longitude: 106.9436459
  type: way
  amenity_type: place_of_worship
- id: 155957544
  name: Masjid At Taqwa
  alt_name: []
  latitude: -6.230167987180683
  longitude: 106.94017060099968
  type: way
  amenity_type: place_of_worship
- id: 155957583
  name: Masjid Al-Khaira
  alt_name: []
  latitude: -6.302266449999999
  longitude: 106.86330234999998
  type: way
  amenity_type: place_of_worship
- id: 155957584
  name: Masjid Baiturrahman
  alt_name: []
  latitude: -6.297483738238944
  longitude: 106.8611554714749
  type: way
  amenity_type: place_of_worship
- id: 155957601
  name: Masjid Baitussolihin
  alt_name: []
  latitude: -6.30048665
  longitude: 106.86760885
  type: way
  amenity_type: place_of_worship
- id: 155957628
  name: HKBP Gedong
  alt_name: []
  latitude: -6.2960451321741235
  longitude: 106.86328705217382
  type: way
  amenity_type: place_of_worship
- id: 155957754
  name: Masjid Jami Al-Ilyas
  alt_name: []
  latitude: -6.1740532237495
  longitude: 106.88981678544171
  type: way
  amenity_type: place_of_worship
- id: 155957757
  name: Nurul Hidayah
  alt_name: []
  latitude: -6.201833217248995
  longitude: 106.89961374683853
  type: way
  amenity_type: place_of_worship
- id: 155958070
  name: Masjid Jami Al-Makmur
  alt_name: []
  latitude: -6.21205225
  longitude: 106.90062860000002
  type: way
  amenity_type: place_of_worship
- id: 155958150
  name: Masjid Jami Baitul Hadi
  alt_name: []
  latitude: -6.188610574857963
  longitude: 106.88308253517089
  type: way
  amenity_type: place_of_worship
- id: 155958151
  name: Masjid Nurul Huda
  alt_name: []
  latitude: -6.186022662773178
  longitude: 106.88202830941951
  type: way
  amenity_type: place_of_worship
- id: 155958367
  name: Masjid Al Mujahidin
  alt_name: []
  latitude: -6.301989644949072
  longitude: 106.87265173083665
  type: way
  amenity_type: place_of_worship
- id: 155960163
  name: Masjid Jami Al-Muqorrobin
  alt_name: []
  latitude: -6.206691890561406
  longitude: 106.8976292896696
  type: way
  amenity_type: place_of_worship
- id: 155960527
  name: Musholla Darussalam
  alt_name: []
  latitude: -6.298308334588938
  longitude: 106.87244777548581
  type: way
  amenity_type: place_of_worship
- id: 155960695
  name: Masjid Baabut Taubah
  alt_name: []
  latitude: -6.175050469801679
  longitude: 106.88319299407812
  type: way
  amenity_type: place_of_worship
- id: 155961180
  name: Masjid Jayakarta
  alt_name: []
  latitude: -6.201157081941907
  longitude: 106.9109326747606
  type: way
  amenity_type: place_of_worship
- id: 155961325
  name: Masjid Jami Al Jihad
  alt_name: []
  latitude: -6.194594817808167
  longitude: 106.95684484552639
  type: way
  amenity_type: place_of_worship
- id: 155961345
  name: Al -Ijtihad
  alt_name: []
  latitude: -6.1552554636589925
  longitude: 106.93987367428457
  type: way
  amenity_type: place_of_worship
- id: 155961347
  name: GPDI Bukit Sion
  alt_name: []
  latitude: -6.175182425502039
  longitude: 106.93639919784253
  type: way
  amenity_type: place_of_worship
- id: 155961353
  name: Masjid Jami Al Falah
  alt_name: []
  latitude: -6.173188249999999
  longitude: 106.93272575
  type: way
  amenity_type: place_of_worship
- id: 155961355
  name: Masjid Al Abror
  alt_name: []
  latitude: -6.172801000806609
  longitude: 106.93863585782498
  type: way
  amenity_type: place_of_worship
- id: 155961356
  name: Mesjid Al-Hasanah
  alt_name: []
  latitude: -6.181493173687595
  longitude: 106.93365625828086
  type: way
  amenity_type: place_of_worship
- id: 155961357
  name: Masjid Al Furqaan
  alt_name: []
  latitude: -6.187814062008329
  longitude: 106.93298332410363
  type: way
  amenity_type: place_of_worship
- id: 155961358
  name: Masjid Al Ittihad Al Islamy
  alt_name: []
  latitude: -6.164871256001119
  longitude: 106.9341311240702
  type: way
  amenity_type: place_of_worship
- id: 155961359
  name: Masjid Al Istiqomah
  alt_name: []
  latitude: -6.1800669466841445
  longitude: 106.93583410901701
  type: way
  amenity_type: place_of_worship
- id: 155961360
  name: Masjid Al Muhabab
  alt_name: []
  latitude: -6.159929325808303
  longitude: 106.93198137685572
  type: way
  amenity_type: place_of_worship
- id: 155961361
  name: Masjid Jami Al Mujahidin
  alt_name: []
  latitude: -6.170444433132394
  longitude: 106.9346881350273
  type: way
  amenity_type: place_of_worship
- id: 155961362
  name: Masjid Jami At Taqwa
  alt_name: []
  latitude: -6.184273776845172
  longitude: 106.93366675872748
  type: way
  amenity_type: place_of_worship
- id: 155961363
  name: Masjid Jami At Tawwab
  alt_name: []
  latitude: -6.185428381479055
  longitude: 106.93825855186772
  type: way
  amenity_type: place_of_worship
- id: 155961364
  name: Masjid Jami Baiturrahman
  alt_name: []
  latitude: -6.1820964242683925
  longitude: 106.9406589280877
  type: way
  amenity_type: place_of_worship
- id: 155961365
  name: Mesjid Griya Tipar Cakung
  alt_name: []
  latitude: -6.171230512401905
  longitude: 106.93865529599464
  type: way
  amenity_type: place_of_worship
- id: 155961366
  name: Masjid Jami' As-Sholihin
  alt_name: []
  latitude: -6.165623744950757
  longitude: 106.93500563300351
  type: way
  amenity_type: place_of_worship
- id: 155961367
  name: Masjid Miftahul Jannah
  alt_name: []
  latitude: -6.190731015793871
  longitude: 106.94212165305154
  type: way
  amenity_type: place_of_worship
- id: 155961369
  name: Masjid Raudhatul Jannah
  alt_name: []
  latitude: -6.18142471775239
  longitude: 106.9281829845836
  type: way
  amenity_type: place_of_worship
- id: 155961434
  name: Masjid Jami Al-Ikhlash
  alt_name: []
  latitude: -6.187992307956605
  longitude: 106.88667320945055
  type: way
  amenity_type: place_of_worship
- id: 155961537
  name: Masjid Jami' Al-Muallimin
  alt_name: []
  latitude: -6.329265113051537
  longitude: 106.87864362185964
  type: way
  amenity_type: place_of_worship
- id: 155961610
  name: Masjid Fadhlur Rahman
  alt_name: []
  latitude: -6.334871919240164
  longitude: 106.87094324223715
  type: way
  amenity_type: place_of_worship
- id: 155961659
  name: Masjid Darussalam
  alt_name: []
  latitude: -6.330742247361864
  longitude: 106.87491946926028
  type: way
  amenity_type: place_of_worship
- id: 155961664
  name: Masjid Al-Huda
  alt_name: []
  latitude: -6.332490397101803
  longitude: 106.87321983100368
  type: way
  amenity_type: place_of_worship
- id: 155961669
  name: Masjid Nuurul Hidayah
  alt_name: []
  latitude: -6.334126372740492
  longitude: 106.87322966938744
  type: way
  amenity_type: place_of_worship
- id: 155961756
  name: Masjid Jami' An' Nur
  alt_name: []
  latitude: -6.330299850000001
  longitude: 106.8688308
  type: way
  amenity_type: place_of_worship
- id: 155962265
  name: GKI Rawamangun
  alt_name: []
  latitude: -6.201620652446225
  longitude: 106.89400953007583
  type: way
  amenity_type: place_of_worship
- id: 155962269
  name: GKPI Rawamangun
  alt_name: []
  latitude: -6.19973655852932
  longitude: 106.89180152743353
  type: way
  amenity_type: place_of_worship
- id: 155962272
  name: Gereja Kristen Protestan Simalungun Jemaat Salemba
  alt_name: []
  latitude: -6.196872519171908
  longitude: 106.89789508332659
  type: way
  amenity_type: place_of_worship
- id: 155962275
  name: GPIB Jemaat Nazareth
  alt_name: []
  latitude: -6.194604941634196
  longitude: 106.89488267541545
  type: way
  amenity_type: place_of_worship
- id: 155962276
  name: GKI Sinode
  alt_name: []
  latitude: -6.198160059985056
  longitude: 106.89759456067307
  type: way
  amenity_type: place_of_worship
- id: 155962279
  name: Masjid Al-Ihsan
  alt_name: []
  latitude: -6.198155524356395
  longitude: 106.89324755744182
  type: way
  amenity_type: place_of_worship
- id: 155962282
  name: Masjid Baiturrahman
  alt_name: []
  latitude: -6.200372586799016
  longitude: 106.89271622599595
  type: way
  amenity_type: place_of_worship
- id: 155962284
  name: Masjid Jami Daarussalam
  alt_name: []
  latitude: -6.194742400000001
  longitude: 106.89173135000001
  type: way
  amenity_type: place_of_worship
- id: 155962674
  name: Masjid Al-Hidayah
  alt_name: []
  latitude: -6.239950482091347
  longitude: 106.86567315975371
  type: way
  amenity_type: place_of_worship
- id: 155962678
  name: Masjid Al-Muntaha
  alt_name: []
  latitude: -6.238902523242496
  longitude: 106.86396778363131
  type: way
  amenity_type: place_of_worship
- id: 155962679
  name: Masjid Jami Al-Muttaqin
  alt_name: []
  latitude: -6.227842270011114
  longitude: 106.86544106065665
  type: way
  amenity_type: place_of_worship
- id: 155962684
  name: Baitus Sodikin
  alt_name: []
  latitude: -6.240539850000002
  longitude: 106.86901350000001
  type: way
  amenity_type: place_of_worship
- id: 155962692
  name: Masjid Jami' Hasbiallah
  alt_name: []
  latitude: -6.22940000295663
  longitude: 106.86618834179751
  type: way
  amenity_type: place_of_worship
- id: 155962804
  name: Masjid At Taubah
  alt_name: []
  latitude: -6.26693265
  longitude: 106.87780760000001
  type: way
  amenity_type: place_of_worship
- id: 155962818
  name: Gereja Kristen Protestan Oikoumene Halim Perdanakusuma
  alt_name: []
  latitude: -6.283676450000002
  longitude: 106.89974965000002
  type: way
  amenity_type: place_of_worship
- id: 155962879
  name: Masjid Al Fida
  alt_name: []
  latitude: -6.262509968765934
  longitude: 106.88448114453332
  type: way
  amenity_type: place_of_worship
- id: 155962881
  name: Masjid Al Barkah
  alt_name: []
  latitude: -6.274864955629677
  longitude: 106.8878020186209
  type: way
  amenity_type: place_of_worship
- id: 155962882
  name: Masjid Al Muawanah
  alt_name: []
  latitude: -6.28289425
  longitude: 106.9023447
  type: way
  amenity_type: place_of_worship
- id: 155962883
  name: Masjid Darul Huda
  alt_name: []
  latitude: -6.24950330505591
  longitude: 106.89134987917454
  type: way
  amenity_type: place_of_worship
- id: 155962884
  name: Masjid Darul Huda
  alt_name: []
  latitude: -6.245328014405187
  longitude: 106.8809680773046
  type: way
  amenity_type: place_of_worship
- id: 155962886
  name: Masjid Darussalam Al Matheor
  alt_name: []
  latitude: -6.263727766870132
  longitude: 106.8852877662428
  type: way
  amenity_type: place_of_worship
- id: 155962887
  name: Masjid Baiturahman Koopsudnas
  alt_name: []
  latitude: -6.274217682887887
  longitude: 106.8915712301974
  type: way
  amenity_type: place_of_worship
- id: 155962888
  name: Masjid POM AU
  alt_name: []
  latitude: -6.2725585562929
  longitude: 106.88381551963326
  type: way
  amenity_type: place_of_worship
- id: 155962889
  name: Masjid Jami' Nurul Hikmah
  alt_name: []
  latitude: -6.270368824830536
  longitude: 106.87830029286317
  type: way
  amenity_type: place_of_worship
- id: 155962903
  name: Masjid Al Ahzab
  alt_name: []
  latitude: -6.268568226439132
  longitude: 106.87771490365981
  type: way
  amenity_type: place_of_worship
- id: 155962926
  name: Masjid Al-Mizaan
  alt_name: []
  latitude: -6.200026092280033
  longitude: 106.89669677948402
  type: way
  amenity_type: place_of_worship
- id: 155963539
  name: Gereja Karmel
  alt_name: []
  latitude: -6.211533518783202
  longitude: 106.89076921707606
  type: way
  amenity_type: place_of_worship
- id: 155963542
  name: GPIB Torsina
  alt_name: []
  latitude: -6.211879297828149
  longitude: 106.89132453566918
  type: way
  amenity_type: place_of_worship
- id: 155963568
  name: Masjid Al-Mukminin
  alt_name: []
  latitude: -6.203009380709028
  longitude: 106.89174375014733
  type: way
  amenity_type: place_of_worship
- id: 155963570
  name: Masjid Baitussalam
  alt_name: []
  latitude: -6.205726997495658
  longitude: 106.8943807708841
  type: way
  amenity_type: place_of_worship
- id: 155963574
  name: Masjid Nurul Iman
  alt_name: []
  latitude: -6.206265230760965
  longitude: 106.88899096444283
  type: way
  amenity_type: place_of_worship
- id: 155964446
  name: Masjid Umarubnul Khottob
  alt_name: []
  latitude: -6.3516924255362985
  longitude: 106.87540083728534
  type: way
  amenity_type: place_of_worship
- id: 155964651
  name: Masjid At Taqwa
  alt_name: []
  latitude: -6.328555184900255
  longitude: 106.84573099838055
  type: way
  amenity_type: place_of_worship
- id: 155964658
  name: Masjid At-Taqwa
  alt_name: []
  latitude: -6.321806495699702
  longitude: 106.84388741434464
  type: way
  amenity_type: place_of_worship
- id: 155965244
  name: Masjid Nurul Iman
  alt_name: []
  latitude: -6.231171400000001
  longitude: 106.93257245000001
  type: way
  amenity_type: place_of_worship
- id: 155965451
  name: Masjid Babussalam
  alt_name: []
  latitude: -6.202264133477848
  longitude: 106.88816669900399
  type: way
  amenity_type: place_of_worship
- id: 155965452
  name: Masjid Jami Nurul Huda
  alt_name: []
  latitude: -6.208357266807066
  longitude: 106.89153390533853
  type: way
  amenity_type: place_of_worship
- id: 156007192
  name: Masjid Amantubillah
  alt_name: []
  latitude: -6.325629355871005
  longitude: 106.86032117450054
  type: way
  amenity_type: place_of_worship
- id: 156007197
  name: Masjid Jami Al-Ikhlas
  alt_name: []
  latitude: -6.325572990906011
  longitude: 106.8627772847397
  type: way
  amenity_type: place_of_worship
- id: 156007200
  name: Masjid Al Kautsar
  alt_name: []
  latitude: -6.323562556162696
  longitude: 106.85344831986258
  type: way
  amenity_type: place_of_worship
- id: 156007203
  name: Masjid Jami Al Kautsar
  alt_name: []
  latitude: -6.327123099999999
  longitude: 106.86023845000001
  type: way
  amenity_type: place_of_worship
- id: 156007204
  name: Masjid Jami At-Taubah
  alt_name: []
  latitude: -6.320070146070311
  longitude: 106.85217283211719
  type: way
  amenity_type: place_of_worship
- id: 156007205
  name: Masjid Miftahul Jannah
  alt_name: []
  latitude: -6.3266939077776385
  longitude: 106.8591432711031
  type: way
  amenity_type: place_of_worship
- id: 156007206
  name: Masjid Nurul Ikhlas Cijantung
  alt_name: []
  latitude: -6.323188103810141
  longitude: 106.85754636836973
  type: way
  amenity_type: place_of_worship
- id: 156222282
  name: Masjid Nurul Ikhlas
  alt_name: []
  latitude: -6.243099950579985
  longitude: 106.8847386300651
  type: way
  amenity_type: place_of_worship
- id: 156944054
  name: Musholla Al Arif
  alt_name: []
  latitude: -6.301749694970084
  longitude: 106.8743931813768
  type: way
  amenity_type: place_of_worship
- id: 157108402
  name: Musholla Al Mukhlisin
  alt_name: []
  latitude: -6.210662089864575
  longitude: 106.96195608082132
  type: way
  amenity_type: place_of_worship
- id: 157211709
  name: Masjid An Nur
  alt_name: []
  latitude: -6.19390723958865
  longitude: 106.94043903733981
  type: way
  amenity_type: place_of_worship
- id: 157211711
  name: Masjid Jami Al Hidayah
  alt_name: []
  latitude: -6.208025254778516
  longitude: 106.93540113133301
  type: way
  amenity_type: place_of_worship
- id: 157211712
  name: Masjid Jami Al Huda
  alt_name: []
  latitude: -6.201158420095062
  longitude: 106.93488029283705
  type: way
  amenity_type: place_of_worship
- id: 157211713
  name: Masjid Jami Al Ikhlas
  alt_name: []
  latitude: -6.213581556465124
  longitude: 106.9387162362525
  type: way
  amenity_type: place_of_worship
- id: 157211715
  name: Masjid Jami'e As-Salam
  alt_name: []
  latitude: -6.1918622999999995
  longitude: 106.93683775000001
  type: way
  amenity_type: place_of_worship
- id: 157211716
  name: Masjid At Taqwa
  alt_name: []
  latitude: -6.204913642857912
  longitude: 106.93096867512904
  type: way
  amenity_type: place_of_worship
- id: 157482220
  name: Masjid Jami Baitun Nur
  alt_name: []
  latitude: -6.200471053925655
  longitude: 106.88070741776801
  type: way
  amenity_type: place_of_worship
- id: 157482932
  name: Masjid As-Sakiinah
  alt_name: []
  latitude: -6.194781180910958
  longitude: 106.8892099651232
  type: way
  amenity_type: place_of_worship
- id: 157513639
  name: Masjid Baitul Halim
  alt_name: []
  latitude: -6.256434333739363
  longitude: 106.86963740509833
  type: way
  amenity_type: place_of_worship
- id: 157972047
  name: Masjid Nurul Islam
  alt_name: []
  latitude: -6.331409300000001
  longitude: 106.84977094999999
  type: way
  amenity_type: place_of_worship
- id: 158809048
  name: Masjid Annur
  alt_name: []
  latitude: -6.182648038707028
  longitude: 106.95060913834348
  type: way
  amenity_type: place_of_worship
- id: 158849633
  name: Masjid Jami' Nurul Huda
  alt_name: []
  latitude: -6.363588942112243
  longitude: 106.88760223089504
  type: way
  amenity_type: place_of_worship
- id: 158979978
  name: Baitul Muslimin
  alt_name: []
  latitude: -6.363985100000002
  longitude: 106.89781955
  type: way
  amenity_type: place_of_worship
- id: 158980028
  name: Al-Fajar
  alt_name: []
  latitude: -6.35914105
  longitude: 106.89711390000001
  type: way
  amenity_type: place_of_worship
- id: 158980032
  name: Gloria
  alt_name: []
  latitude: -6.363060975999116
  longitude: 106.8984949602821
  type: way
  amenity_type: place_of_worship
- id: 158980041
  name: Vihara
  alt_name: []
  latitude: -6.363190696816058
  longitude: 106.89787399537461
  type: way
  amenity_type: place_of_worship
- id: 158980661
  name: St Lucas
  alt_name: []
  latitude: -6.3624871116289174
  longitude: 106.89859155569464
  type: way
  amenity_type: place_of_worship
- id: 158981577
  name: Masjid Al-Istiqomah
  alt_name: []
  latitude: -6.293817154498909
  longitude: 106.86105236931927
  type: way
  amenity_type: place_of_worship
- id: 159002577
  name: Musholla Miftahul Jannah
  alt_name: []
  latitude: -6.258329923606005
  longitude: 106.90672479123259
  type: way
  amenity_type: place_of_worship
- id: 159008159
  name: Masjid Al-Mujahidin
  alt_name: []
  latitude: -6.251899558826531
  longitude: 106.90361782442663
  type: way
  amenity_type: place_of_worship
- id: 159008162
  name: Masjid Jami' Assa'adah
  alt_name: []
  latitude: -6.254387029547056
  longitude: 106.90817620861999
  type: way
  amenity_type: place_of_worship
- id: 159008163
  name: Masjid Jami Al-Ihsan
  alt_name: []
  latitude: -6.251164147590378
  longitude: 106.90739669592904
  type: way
  amenity_type: place_of_worship
- id: 159810523
  name: Masjid Al - Mochtar
  alt_name: []
  latitude: -6.34011664827732
  longitude: 106.8958892936074
  type: way
  amenity_type: place_of_worship
- id: 159810527
  name: Masjid Al - Islam
  alt_name: []
  latitude: -6.333777
  longitude: 106.89114290000002
  type: way
  amenity_type: place_of_worship
- id: 159810536
  name: Masjid Jami' Baitul 'Ilmi
  alt_name: []
  latitude: -6.337027391771141
  longitude: 106.89004012248856
  type: way
  amenity_type: place_of_worship
- id: 159938437
  name: Masjid Jami Al Muhibah
  alt_name: []
  latitude: -6.350355780657205
  longitude: 106.87284145669217
  type: way
  amenity_type: place_of_worship
- id: 159938439
  name: Masjid Jami Al Barokah
  alt_name: []
  latitude: -6.347786906113152
  longitude: 106.87331072104594
  type: way
  amenity_type: place_of_worship
- id: 159938531
  name: Masjid Jami Hidayatullah
  alt_name: []
  latitude: -6.186998703234169
  longitude: 106.89602933035205
  type: way
  amenity_type: place_of_worship
- id: 159939583
  name: Masjid Jami' Ar-Riyad
  alt_name: []
  latitude: -6.196761954326092
  longitude: 106.94277466445416
  type: way
  amenity_type: place_of_worship
- id: 159945659
  name: Masjid An Nurain
  alt_name: []
  latitude: -6.336313551074029
  longitude: 106.90361260635932
  type: way
  amenity_type: place_of_worship
- id: 159946190
  name: Masjid Al Mukhlisin
  alt_name: []
  latitude: -6.200591749999998
  longitude: 106.95154679999999
  type: way
  amenity_type: place_of_worship
- id: 159946984
  name: Masjid Asy Syafaqoh
  alt_name: []
  latitude: -6.206151491262716
  longitude: 106.94970856740751
  type: way
  amenity_type: place_of_worship
- id: 159950703
  name: Masjid Nurul Iman
  alt_name: []
  latitude: -6.3416010499999995
  longitude: 106.90466909999999
  type: way
  amenity_type: place_of_worship
- id: 159953269
  name: Masjid Al-Ihsan
  alt_name: []
  latitude: -6.33020464582658
  longitude: 106.86498301155011
  type: way
  amenity_type: place_of_worship
- id: 162658892
  name: Al-Amin
  alt_name: []
  latitude: -6.25175975
  longitude: 106.94016260000001
  type: way
  amenity_type: place_of_worship
- id: 162658900
  name: Masjid Jami Al Hidayah
  alt_name: []
  latitude: -6.2497587
  longitude: 106.93628514999997
  type: way
  amenity_type: place_of_worship
- id: 162658909
  name: Masjid Al Ihsan
  alt_name: []
  latitude: -6.252432700000001
  longitude: 106.92551889999999
  type: way
  amenity_type: place_of_worship
- id: 162658910
  name: Masjid Jami Nurussalam
  alt_name: []
  latitude: -6.252413962786711
  longitude: 106.92933827599893
  type: way
  amenity_type: place_of_worship
- id: 162658911
  name: Masjid Al Hidayah
  alt_name: []
  latitude: -6.252192918051389
  longitude: 106.94337539536991
  type: way
  amenity_type: place_of_worship
- id: 162804100
  name: Musholla Al-Ikhlas
  alt_name: []
  latitude: -6.3331098
  longitude: 106.88472254999999
  type: way
  amenity_type: place_of_worship
- id: 162804530
  name: Masjid Jami' Al - Manar
  alt_name: []
  latitude: -6.246862064610111
  longitude: 106.86670714112644
  type: way
  amenity_type: place_of_worship
- id: 162810544
  name: Masjid Al-Istiqomah
  alt_name: []
  latitude: -6.21665385
  longitude: 106.86564310000001
  type: way
  amenity_type: place_of_worship
- id: 162810656
  name: Masjid Ar-Rahman
  alt_name: []
  latitude: -6.226285645663975
  longitude: 106.86838401172125
  type: way
  amenity_type: place_of_worship
- id: 162811487
  name: Masjid Nurul Huda
  alt_name: []
  latitude: -6.2310786553810225
  longitude: 106.86441535185443
  type: way
  amenity_type: place_of_worship
- id: 162818235
  name: Masjid Al Ikhlas
  alt_name: []
  latitude: -6.233326820177041
  longitude: 106.89636026181803
  type: way
  amenity_type: place_of_worship
- id: 162818562
  name: Masjid Al-Anhar
  alt_name: []
  latitude: -6.241356186726524
  longitude: 106.88029718643278
  type: way
  amenity_type: place_of_worship
- id: 162818735
  name: Masjid Sabilillah
  alt_name: []
  latitude: -6.24131956448793
  longitude: 106.8839094562565
  type: way
  amenity_type: place_of_worship
- id: 162819137
  name: Masjid Al Muqorobin
  alt_name: []
  latitude: -6.240455920180047
  longitude: 106.89019789363466
  type: way
  amenity_type: place_of_worship
- id: 162931372
  name: Masjid Al Anwar
  alt_name: []
  latitude: -6.221281658450248
  longitude: 106.86418882615209
  type: way
  amenity_type: place_of_worship
- id: 162931963
  name: Ar-Ridhwan
  alt_name: []
  latitude: -6.220463062617617
  longitude: 106.87279587535483
  type: way
  amenity_type: place_of_worship
- id: 162932015
  name: Masjid Al-Ihsan
  alt_name: []
  latitude: -6.214669278202364
  longitude: 106.90880797382415
  type: way
  amenity_type: place_of_worship
- id: 162932016
  name: Masjid Jami' Al-Ihya
  alt_name: []
  latitude: -6.217795249999999
  longitude: 106.90555199999999
  type: way
  amenity_type: place_of_worship
- id: 162932017
  name: Masjid An-Nur
  alt_name: []
  latitude: -6.21968185
  longitude: 106.92415439999999
  type: way
  amenity_type: place_of_worship
- id: 162932018
  name: At-Taqwa
  alt_name: []
  latitude: -6.213950076347375
  longitude: 106.89735440546566
  type: way
  amenity_type: place_of_worship
- id: 162932020
  name: Masjid At Taubah
  alt_name: []
  latitude: -6.21739349080589
  longitude: 106.89646617528541
  type: way
  amenity_type: place_of_worship
- id: 162932021
  name: Masjid Al Husniah
  alt_name: []
  latitude: -6.217175019863809
  longitude: 106.91212147493694
  type: way
  amenity_type: place_of_worship
- id: 162932022
  name: Masjid Nurul Islam
  alt_name: []
  latitude: -6.2224581
  longitude: 106.91122044999999
  type: way
  amenity_type: place_of_worship
- id: 162932347
  name: Masjid Assa'addah
  alt_name: []
  latitude: -6.222958500000001
  longitude: 106.8727141
  type: way
  amenity_type: place_of_worship
- id: 162933014
  name: Mushola Al-Fikri
  alt_name: []
  latitude: -6.202403199999998
  longitude: 106.86919
  type: way
  amenity_type: place_of_worship
- id: 162933121
  name: Masjid Al Maghfiroh
  alt_name: []
  latitude: -6.202195594743936
  longitude: 106.87233352918265
  type: way
  amenity_type: place_of_worship
- id: 162933437
  name: Al-Barkah
  alt_name: []
  latitude: -6.3594841254539105
  longitude: 106.9096181628056
  type: way
  amenity_type: place_of_worship
- id: 162933439
  name: Masjid Jami Darul Ulum
  alt_name: []
  latitude: -6.34161645
  longitude: 106.91225409999998
  type: way
  amenity_type: place_of_worship
- id: 162933440
  name: Nurul Falah
  alt_name: []
  latitude: -6.356354512389016
  longitude: 106.90611146084689
  type: way
  amenity_type: place_of_worship
- id: 162933441
  name: Nurul Ikhsan
  alt_name: []
  latitude: -6.359598918275177
  longitude: 106.9076630937527
  type: way
  amenity_type: place_of_worship
- id: 162941499
  name: Masjid Jami Nurul Ikhwan
  alt_name: []
  latitude: -6.340750243448364
  longitude: 106.85303353192798
  type: way
  amenity_type: place_of_worship
- id: 162944185
  name: Masjid Arrahmah
  alt_name: []
  latitude: -6.2212295068874655
  longitude: 106.8914328193231
  type: way
  amenity_type: place_of_worship
- id: 162944373
  name: Masjid Ziyadatul Ihsan
  alt_name: []
  latitude: -6.22781705
  longitude: 106.88803910000001
  type: way
  amenity_type: place_of_worship
- id: 162945749
  name: Al-Isligomah
  alt_name: []
  latitude: -6.265700572895848
  longitude: 106.8550603013646
  type: way
  amenity_type: place_of_worship
- id: 162945750
  name: Masjid Ar Radhah
  alt_name: []
  latitude: -6.265144199999999
  longitude: 106.86078474999998
  type: way
  amenity_type: place_of_worship
- id: 162945752
  name: Musholla Asyaadah
  alt_name: []
  latitude: -6.265747722175456
  longitude: 106.86256986085317
  type: way
  amenity_type: place_of_worship
- id: 163040372
  name: Masjid Al-Hikmah
  alt_name: []
  latitude: -6.306185235152839
  longitude: 106.8616498129207
  type: way
  amenity_type: place_of_worship
- id: 163042755
  name: Masjid Jami' Al Madinah
  alt_name: []
  latitude: -6.292883357224729
  longitude: 106.87656321984079
  type: way
  amenity_type: place_of_worship
- id: 163043180
  name: Masjid Al-Muhtadin
  alt_name: []
  latitude: -6.3338441419454
  longitude: 106.87438437977846
  type: way
  amenity_type: place_of_worship
- id: 163044769
  name: Masjid Jami' Al Falah
  alt_name: []
  latitude: -6.26188954299731
  longitude: 106.87679939626705
  type: way
  amenity_type: place_of_worship
- id: 163045817
  name: Masjid Jami' Al-Ikhlash
  alt_name: []
  latitude: -6.25467555
  longitude: 106.87400349999999
  type: way
  amenity_type: place_of_worship
- id: 163046792
  name: Masjid Jami' Nur Rohmah
  alt_name: []
  latitude: -6.251867358135453
  longitude: 106.87445657292027
  type: way
  amenity_type: place_of_worship
- id: 163047511
  name: Baitus Syakirin
  alt_name: []
  latitude: -6.251579440289235
  longitude: 106.87962785994756
  type: way
  amenity_type: place_of_worship
- id: 163048246
  name: Masjid Jami' Al Khaerot
  alt_name: []
  latitude: -6.2500167983323385
  longitude: 106.87879920297142
  type: way
  amenity_type: place_of_worship
- id: 163049590
  name: Al-Hikmah
  alt_name: []
  latitude: -6.257873450548798
  longitude: 106.87663890250013
  type: way
  amenity_type: place_of_worship
- id: 163050218
  name: Masjid Al Hidayah
  alt_name: []
  latitude: -6.263688499999999
  longitude: 106.87968684999998
  type: way
  amenity_type: place_of_worship
- id: 163050219
  name: Masjid Az-Zuriyat
  alt_name: []
  latitude: -6.256856061076984
  longitude: 106.8814909228058
  type: way
  amenity_type: place_of_worship
- id: 163050246
  name: Masjid Jami' Al Ikhlas
  alt_name: []
  latitude: -6.261107520302273
  longitude: 106.88112259177728
  type: way
  amenity_type: place_of_worship
- id: 163050438
  name: Masjid Ar-Rahmah
  alt_name: []
  latitude: -6.25779973303229
  longitude: 106.87382695165077
  type: way
  amenity_type: place_of_worship
- id: 163053805
  name: Nurul Huda
  alt_name: []
  latitude: -6.262860744703569
  longitude: 106.87384705171974
  type: way
  amenity_type: place_of_worship
- id: 163054008
  name: Masjid Al-Istiqomah
  alt_name: []
  latitude: -6.352159219494922
  longitude: 106.89127638995441
  type: way
  amenity_type: place_of_worship
- id: 163054010
  name: Masjid Jami An Nur
  alt_name: []
  latitude: -6.353625750000001
  longitude: 106.8825705
  type: way
  amenity_type: place_of_worship
- id: 163055617
  name: Masjid Nurul Hikmah
  alt_name: []
  latitude: -6.285706507426711
  longitude: 106.8977265404868
  type: way
  amenity_type: place_of_worship
- id: 163062614
  name: Al-Barkah
  alt_name: []
  latitude: -6.195607931936043
  longitude: 106.96398915552979
  type: way
  amenity_type: place_of_worship
- id: 163062616
  name: Masjid Al Ikhlas
  alt_name: []
  latitude: -6.199400490440059
  longitude: 106.95563791584784
  type: way
  amenity_type: place_of_worship
- id: 163062617
  name: Masjid Jami At Thohiriyah
  alt_name: []
  latitude: -6.210052899999999
  longitude: 106.95882585
  type: way
  amenity_type: place_of_worship
- id: 163062618
  name: Al-Kautsar
  alt_name: []
  latitude: -6.1941261500000016
  longitude: 106.94766929999999
  type: way
  amenity_type: place_of_worship
- id: 163062620
  name: Masjid Hayatun Nufus
  alt_name: []
  latitude: -6.19526596002183
  longitude: 106.94740692333983
  type: way
  amenity_type: place_of_worship
- id: 163521353
  name: Masjid Baitul Hamdi
  alt_name: []
  latitude: -6.184247342889523
  longitude: 106.92707633323143
  type: way
  amenity_type: place_of_worship
- id: 163521434
  name: Masjid Jami At Taqwa
  alt_name: []
  latitude: -6.1928403771590546
  longitude: 106.92218047355034
  type: way
  amenity_type: place_of_worship
- id: 163525642
  name: Masjid Al Akbar
  alt_name: []
  latitude: -6.352338061612245
  longitude: 106.89474155717186
  type: way
  amenity_type: place_of_worship
- id: 163525643
  name: Al-Amin
  alt_name: []
  latitude: -6.345940249999998
  longitude: 106.89522464999999
  type: way
  amenity_type: place_of_worship
- id: 163525644
  name: Al-Hidayah
  alt_name: []
  latitude: -6.353010806512922
  longitude: 106.89290737084781
  type: way
  amenity_type: place_of_worship
- id: 163525645
  name: Masjid Nurul Hidayah
  alt_name: []
  latitude: -6.344561041200834
  longitude: 106.89613996924543
  type: way
  amenity_type: place_of_worship
- id: 163525646
  name: Masjid Darussalam
  alt_name: []
  latitude: -6.346946000000003
  longitude: 106.89247664999999
  type: way
  amenity_type: place_of_worship
- id: 163525647
  name: Darul Mutaqin
  alt_name: []
  latitude: -6.35160397391747
  longitude: 106.89691806180086
  type: way
  amenity_type: place_of_worship
- id: 163526361
  name: Al-Atiqon
  alt_name: []
  latitude: -6.2095033386659555
  longitude: 106.92847202335825
  type: way
  amenity_type: place_of_worship
- id: 163526450
  name: Masjid Jami Al Muttaqien
  alt_name: []
  latitude: -6.215993298363343
  longitude: 106.93102800539366
  type: way
  amenity_type: place_of_worship
- id: 163526639
  name: Al-Ikhlas
  alt_name: []
  latitude: -6.209865948463683
  longitude: 106.93475199459914
  type: way
  amenity_type: place_of_worship
- id: 163526730
  name: Masjid Jami Taufiqurahman
  alt_name: []
  latitude: -6.211676155830521
  longitude: 106.93055090399537
  type: way
  amenity_type: place_of_worship
- id: 163528148
  name: Masjid Baitussalam LDII
  alt_name: []
  latitude: -6.2164619160247785
  longitude: 106.93625822700423
  type: way
  amenity_type: place_of_worship
- id: 163534556
  name: Masjid Al-Mi'raj
  alt_name: []
  latitude: -6.184630557669746
  longitude: 106.8848558325298
  type: way
  amenity_type: place_of_worship
- id: 163534671
  name: Masjid Jami' Al Falah
  alt_name: []
  latitude: -6.185114009136983
  longitude: 106.87732982235813
  type: way
  amenity_type: place_of_worship
- id: 163534789
  name: Masjid Al Muttaqien
  alt_name: []
  latitude: -6.18896004027943
  longitude: 106.88811585640494
  type: way
  amenity_type: place_of_worship
- id: 163534889
  name: Masjid Jami Al-Amien
  alt_name: []
  latitude: -6.182998780260603
  longitude: 106.88076425537096
  type: way
  amenity_type: place_of_worship
- id: 163536103
  name: Masjid Jami'iyatul Khoir
  alt_name: []
  latitude: -6.189138750024773
  longitude: 106.87908235412556
  type: way
  amenity_type: place_of_worship
- id: 163537152
  name: Masjid Nurul Huda
  alt_name: []
  latitude: -6.1814985192090015
  longitude: 106.88267977461688
  type: way
  amenity_type: place_of_worship
- id: 163537746
  name: Jami At-Thoriyah
  alt_name: []
  latitude: -6.2120319823513785
  longitude: 106.87957691225891
  type: way
  amenity_type: place_of_worship
- id: 163537791
  name: Masjid Nurul Huda
  alt_name: []
  latitude: -6.213339609341727
  longitude: 106.87977989991344
  type: way
  amenity_type: place_of_worship
- id: 163537804
  name: Masjid Jami Rumah Sakit Persahabatan
  alt_name: []
  latitude: -6.2042907679968
  longitude: 106.8839768411506
  type: way
  amenity_type: place_of_worship
- id: 163538616
  name: Baitul Taqdis
  alt_name: []
  latitude: -6.203815295653046
  longitude: 106.87743506509885
  type: way
  amenity_type: place_of_worship
- id: 163549399
  name: Nurul Amal
  alt_name: []
  latitude: -6.21168815
  longitude: 106.87710195000001
  type: way
  amenity_type: place_of_worship
- id: 163550417
  name: Baitus Salam
  alt_name: []
  latitude: -6.208390445532546
  longitude: 106.88177407422532
  type: way
  amenity_type: place_of_worship
- id: 163552445
  name: Masjid Al-Ihsan
  alt_name: []
  latitude: -6.2667683499999995
  longitude: 106.86664345000001
  type: way
  amenity_type: place_of_worship
- id: 163552532
  name: Masjid Al-Afiah
  alt_name: []
  latitude: -6.26953785
  longitude: 106.86959219999999
  type: way
  amenity_type: place_of_worship
- id: 163552922
  name: Al-Mizab
  alt_name: []
  latitude: -6.2721994672704025
  longitude: 106.86992669342821
  type: way
  amenity_type: place_of_worship
- id: 163553215
  name: Masjid Al Ihsan
  alt_name: []
  latitude: -6.2798209499999995
  longitude: 106.8733542
  type: way
  amenity_type: place_of_worship
- id: 163556710
  name: Masjid Al-Muhajirin
  alt_name: []
  latitude: -6.250475291201726
  longitude: 106.91514131449193
  type: way
  amenity_type: place_of_worship
- id: 163556716
  name: Masjid Almuqarrabin
  alt_name: []
  latitude: -6.252219800000001
  longitude: 106.91155259999996
  type: way
  amenity_type: place_of_worship
- id: 163557915
  name: Masjid Jami' Al-Kassim
  alt_name: []
  latitude: -6.346430299999998
  longitude: 106.88501184999998
  type: way
  amenity_type: place_of_worship
- id: 163667741
  name: Musholla Nur Abjad
  alt_name: []
  latitude: -6.2924684000000015
  longitude: 106.86963949999999
  type: way
  amenity_type: place_of_worship
- id: 163667743
  name: Masjid Al Husna
  alt_name: []
  latitude: -6.287617449999999
  longitude: 106.86630175
  type: way
  amenity_type: place_of_worship
- id: 163667744
  name: Nurul Huda
  alt_name: []
  latitude: -6.28622475
  longitude: 106.86491735
  type: way
  amenity_type: place_of_worship
- id: 163667745
  name: Masjid Jami' Baitussalam
  alt_name: []
  latitude: -6.29059715
  longitude: 106.86872539999999
  type: way
  amenity_type: place_of_worship
- id: 174000151
  name: Mesjid SMA 113
  alt_name: []
  latitude: -6.293034084398965
  longitude: 106.90329829864004
  type: way
  amenity_type: place_of_worship
- id: 174128186
  name: Gereja Kristen Jawa
  alt_name: []
  latitude: -6.201524038723297
  longitude: 106.88638561747916
  type: way
  amenity_type: place_of_worship
- id: 174132864
  name: Gereka HKBP Rawamangun
  alt_name: []
  latitude: -6.196298611233714
  longitude: 106.8857369699103
  type: way
  amenity_type: place_of_worship
- id: 191511788
  name: Masjid Asy-Syamsu
  alt_name: []
  latitude: -6.208725787406831
  longitude: 106.87274955381474
  type: way
  amenity_type: place_of_worship
- id: 191511794
  name: Musholla Nurul Jalal
  alt_name: []
  latitude: -6.211087850000001
  longitude: 106.872062
  type: way
  amenity_type: place_of_worship
- id: 197149857
  name: Gereja Katolik Santa Catharina
  alt_name: []
  latitude: -6.303380325361187
  longitude: 106.89284265630056
  type: way
  amenity_type: place_of_worship
- id: 197149859
  name: Gereja Protestan Haleluya
  alt_name: []
  latitude: -6.303441925103276
  longitude: 106.89335785593809
  type: way
  amenity_type: place_of_worship
- id: 197149861
  name: Masjid Pangeran Diponegoro
  alt_name: []
  latitude: -6.303372365809219
  longitude: 106.89232249269376
  type: way
  amenity_type: place_of_worship
- id: 197149862
  name: Pura Hindu Penataran Agung Kertabumi
  alt_name: []
  latitude: -6.303386700000001
  longitude: 106.89388285000001
  type: way
  amenity_type: place_of_worship
- id: 226688166
  name: Gereja Kerasulan Baru
  alt_name: []
  latitude: -6.265159324725771
  longitude: 106.86780214106992
  type: way
  amenity_type: place_of_worship
- id: 229409106
  name: Mushola
  alt_name: []
  latitude: -6.1951481
  longitude: 106.94026960000001
  type: way
  amenity_type: place_of_worship
- id: 242188094
  name: Masjid Al Mabrur
  alt_name: []
  latitude: -6.20761265
  longitude: 106.8560951
  type: way
  amenity_type: place_of_worship
- id: 242190340
  name: Masjid Mujahidin
  alt_name: []
  latitude: -6.209060428717694
  longitude: 106.8543271460552
  type: way
  amenity_type: place_of_worship
- id: 242192745
  name: Masjid Al Baraqah
  alt_name: []
  latitude: -6.206688000000001
  longitude: 106.85418115
  type: way
  amenity_type: place_of_worship
- id: 263921131
  name: Masjid Jami' Baitur Rahman
  alt_name: []
  latitude: -6.20829097595858
  longitude: 106.94401216382697
  type: way
  amenity_type: place_of_worship
- id: 283059847
  name: Mushala Ar Rahmah
  alt_name: []
  latitude: -6.2221549
  longitude: 106.86479895
  type: way
  amenity_type: place_of_worship
- id: 283060946
  name: Mushola Al Furqon
  alt_name: []
  latitude: -6.207827099999999
  longitude: 106.85350130000002
  type: way
  amenity_type: place_of_worship
- id: 283067385
  name: Mushala Al Ikhlas
  alt_name: []
  latitude: -6.22104128793283
  longitude: 106.86159802475085
  type: way
  amenity_type: place_of_worship
- id: 283071144
  name: Mushala Al Awwabin
  alt_name: []
  latitude: -6.220869417583753
  longitude: 106.86067474329685
  type: way
  amenity_type: place_of_worship
- id: 283082170
  name: Mushalla Al Barkah
  alt_name: []
  latitude: -6.2179236499999995
  longitude: 106.86304335
  type: way
  amenity_type: place_of_worship
- id: 283286981
  name: Mushala
  alt_name: []
  latitude: -6.214836850000001
  longitude: 106.86156065
  type: way
  amenity_type: place_of_worship
- id: 283287212
  name: Mushalla Ar Rohmah
  alt_name: []
  latitude: -6.215781520198993
  longitude: 106.86166605451373
  type: way
  amenity_type: place_of_worship
- id: 283301353
  name: Masjid Khairul Anam
  alt_name: []
  latitude: -6.214524782292316
  longitude: 106.85887639645492
  type: way
  amenity_type: place_of_worship
- id: 283301372
  name: Mushalla At Taqwa
  alt_name: []
  latitude: -6.216028400000001
  longitude: 106.859953
  type: way
  amenity_type: place_of_worship
- id: 290619236
  name: Darul Husna Mosque
  alt_name: []
  latitude: -6.326166150412487
  longitude: 106.86080371679964
  type: way
  amenity_type: place_of_worship
- id: 291425294
  name: Mushala Nurul Iwan
  alt_name: []
  latitude: -6.237361000000001
  longitude: 106.86437405000001
  type: way
  amenity_type: place_of_worship
- id: 291546826
  name: Mushala Radhatul Ibadah
  alt_name: []
  latitude: -6.2372834500000005
  longitude: 106.86847365
  type: way
  amenity_type: place_of_worship
- id: 291576853
  name: Masjid Al Islah
  alt_name: []
  latitude: -6.226168011744766
  longitude: 106.86491437655842
  type: way
  amenity_type: place_of_worship
- id: 291576930
  name: Mushala Al Mutaqin
  alt_name: []
  latitude: -6.227873319075749
  longitude: 106.86879604163535
  type: way
  amenity_type: place_of_worship
- id: 291577589
  name: Mushala Ash Sholihin
  alt_name: []
  latitude: -6.228186424308835
  longitude: 106.86596240704871
  type: way
  amenity_type: place_of_worship
- id: 291577628
  name: Mushala Baiturohim
  alt_name: []
  latitude: -6.2305641000000005
  longitude: 106.8652927
  type: way
  amenity_type: place_of_worship
- id: 291577826
  name: Mushala Silaturahmi
  alt_name: []
  latitude: -6.230663722105671
  longitude: 106.86942296785722
  type: way
  amenity_type: place_of_worship
- id: 291578178
  name: Mushala Asholihin
  alt_name: []
  latitude: -6.230527841568243
  longitude: 106.86613633108794
  type: way
  amenity_type: place_of_worship
- id: 291578312
  name: Mushala Darusalam
  alt_name: []
  latitude: -6.229200099999999
  longitude: 106.86488475000002
  type: way
  amenity_type: place_of_worship
- id: 291578369
  name: Mushola Nurul Ihsan
  alt_name: []
  latitude: -6.230344085478331
  longitude: 106.86415589144055
  type: way
  amenity_type: place_of_worship
- id: 291578821
  name: Mushala
  alt_name: []
  latitude: -6.228892316231742
  longitude: 106.86889759055627
  type: way
  amenity_type: place_of_worship
- id: 292200202
  name: Gereja HKBP
  alt_name: []
  latitude: -6.24082450237472
  longitude: 106.86526664176381
  type: way
  amenity_type: place_of_worship
- id: 292259880
  name: Mushala Al Bashir
  alt_name: []
  latitude: -6.238770067088588
  longitude: 106.86345286243943
  type: way
  amenity_type: place_of_worship
- id: 292260593
  name: Mushala Hasbiallah
  alt_name: []
  latitude: -6.238320749999999
  longitude: 106.8638934
  type: way
  amenity_type: place_of_worship
- id: 292631686
  name: Mushala Al Ilham
  alt_name: []
  latitude: -6.2395434000000005
  longitude: 106.86628265
  type: way
  amenity_type: place_of_worship
- id: 292685922
  name: Mushala Al Ahyar
  alt_name: []
  latitude: -6.227631017983048
  longitude: 106.86818839062964
  type: way
  amenity_type: place_of_worship
- id: 292722597
  name: Masjid Al-Ishlah
  alt_name: []
  latitude: -6.225547168544253
  longitude: 106.86488001491236
  type: way
  amenity_type: place_of_worship
- id: 302699335
  name: Masjid Baitut Taqwa
  alt_name: []
  latitude: -6.3455766
  longitude: 106.8557081
  type: way
  amenity_type: place_of_worship
- id: 307524901
  name: Masjid Jami' At-Taufiq
  alt_name: []
  latitude: -6.34919799186209
  longitude: 106.88898732428372
  type: way
  amenity_type: place_of_worship
- id: 314061970
  name: Masjid Darul Mutaqin
  alt_name: []
  latitude: -6.216982976280355
  longitude: 106.85746100806809
  type: way
  amenity_type: place_of_worship
- id: 314061971
  name: Masjid Jami Ittihaadul Ikhwan
  alt_name: []
  latitude: -6.2162277522363105
  longitude: 106.85753306863438
  type: way
  amenity_type: place_of_worship
- id: 314061972
  name: Mushala Al Abbror
  alt_name: []
  latitude: -6.216865150702894
  longitude: 106.8568667662942
  type: way
  amenity_type: place_of_worship
- id: 314061973
  name: Mushala Al Borkah
  alt_name: []
  latitude: -6.217486650000001
  longitude: 106.86316169999999
  type: way
  amenity_type: place_of_worship
- id: 314061974
  name: Mushala Al Hikmah
  alt_name: []
  latitude: -6.217404259511312
  longitude: 106.85775071126251
  type: way
  amenity_type: place_of_worship
- id: 314061975
  name: Mushala Al Huda
  alt_name: []
  latitude: -6.215079000000001
  longitude: 106.8578977
  type: way
  amenity_type: place_of_worship
- id: 314061976
  name: Mushala Al Ikhlas
  alt_name: []
  latitude: -6.218314233790801
  longitude: 106.86374601777287
  type: way
  amenity_type: place_of_worship
- id: 314061977
  name: Mushala Al Mujahidin
  alt_name: []
  latitude: -6.214996963007107
  longitude: 106.8572584695439
  type: way
  amenity_type: place_of_worship
- id: 314061978
  name: Mushala Ar Ridha
  alt_name: []
  latitude: -6.214174406768801
  longitude: 106.85752232099529
  type: way
  amenity_type: place_of_worship
- id: 314061979
  name: Mushala At Taufiq
  alt_name: []
  latitude: -6.219236477491972
  longitude: 106.86281563005592
  type: way
  amenity_type: place_of_worship
- id: 314061980
  name: Mushala Baitul Choir
  alt_name: []
  latitude: -6.215988049999998
  longitude: 106.85881040000001
  type: way
  amenity_type: place_of_worship
- id: 314061981
  name: Mushala Darusalam
  alt_name: []
  latitude: -6.213074893371109
  longitude: 106.8599539692342
  type: way
  amenity_type: place_of_worship
- id: 314061982
  name: Mushala Darussalam
  alt_name: []
  latitude: -6.214923221747237
  longitude: 106.85806139032105
  type: way
  amenity_type: place_of_worship
- id: 314061983
  name: Mushala
  alt_name: []
  latitude: -6.221222901966045
  longitude: 106.86128151608288
  type: way
  amenity_type: place_of_worship
- id: 314061994
  name: Masjid Nurul Falah
  alt_name: []
  latitude: -6.216369465535623
  longitude: 106.85643377338955
  type: way
  amenity_type: place_of_worship
- id: 314357691
  name: Mushala Al Mutaqin
  alt_name: []
  latitude: -6.214181089254823
  longitude: 106.85731540747544
  type: way
  amenity_type: place_of_worship
- id: 314667716
  name: Mushala Al Abrol
  alt_name: []
  latitude: -6.234524743270337
  longitude: 106.8681796727999
  type: way
  amenity_type: place_of_worship
- id: 314667717
  name: Mushala Al Falah
  alt_name: []
  latitude: -6.239324851824839
  longitude: 106.86953592282877
  type: way
  amenity_type: place_of_worship
- id: 314667718
  name: Mushala Al Islamiyah
  alt_name: []
  latitude: -6.241549286100245
  longitude: 106.87006826638984
  type: way
  amenity_type: place_of_worship
- id: 314667719
  name: Mushala An Nur
  alt_name: []
  latitude: -6.23461572437985
  longitude: 106.86963403995271
  type: way
  amenity_type: place_of_worship
- id: 314681688
  name: Gereja HKBP
  alt_name: []
  latitude: -6.240568333333334
  longitude: 106.86294712702944
  type: way
  amenity_type: place_of_worship
- id: 314681699
  name: Mushala Al Badru
  alt_name: []
  latitude: -6.226705645169627
  longitude: 106.86677128145125
  type: way
  amenity_type: place_of_worship
- id: 314681701
  name: Mushala Al Ihsan
  alt_name: []
  latitude: -6.239878849999999
  longitude: 106.8634174
  type: way
  amenity_type: place_of_worship
- id: 314681702
  name: Mushala Amalia
  alt_name: []
  latitude: -6.227328450000001
  longitude: 106.8665745
  type: way
  amenity_type: place_of_worship
- id: 314681703
  name: Mushala At Taufiq
  alt_name: []
  latitude: -6.238138282715677
  longitude: 106.86486955983426
  type: way
  amenity_type: place_of_worship
- id: 314681704
  name: Mushala Darusalam
  alt_name: []
  latitude: -6.241120067971676
  longitude: 106.86305987700656
  type: way
  amenity_type: place_of_worship
- id: 314681705
  name: Mushala Nurrodin
  alt_name: []
  latitude: -6.240441393323618
  longitude: 106.8665128244893
  type: way
  amenity_type: place_of_worship
- id: 314681706
  name: Mushala Nurul Huda
  alt_name: []
  latitude: -6.243282565075915
  longitude: 106.86951912833008
  type: way
  amenity_type: place_of_worship
- id: 314681707
  name: Mushala Raudhatuttaaibin
  alt_name: []
  latitude: -6.2257615500000005
  longitude: 106.86629574999998
  type: way
  amenity_type: place_of_worship
- id: 315257463
  name: Masjid Immanudin
  alt_name: []
  latitude: -6.257593008321215
  longitude: 106.86550682413683
  type: way
  amenity_type: place_of_worship
- id: 315257467
  name: Musholla Al-Huda
  alt_name: []
  latitude: -6.266144845964421
  longitude: 106.8645784304512
  type: way
  amenity_type: place_of_worship
- id: 315257796
  name: Musholla Al-Hikmah
  alt_name: []
  latitude: -6.260112450000001
  longitude: 106.86508029999999
  type: way
  amenity_type: place_of_worship
- id: 315408819
  name: Musholla Al- Anwar
  alt_name: []
  latitude: -6.2661586499999995
  longitude: 106.85822565
  type: way
  amenity_type: place_of_worship
- id: 315408820
  name: Musholla Al- Ikhlas
  alt_name: []
  latitude: -6.265963207413363
  longitude: 106.86006435410438
  type: way
  amenity_type: place_of_worship
- id: 315408821
  name: Musholla Al- Ma'bul Jannah
  alt_name: []
  latitude: -6.265890450000001
  longitude: 106.86092894999999
  type: way
  amenity_type: place_of_worship
- id: 315408822
  name: Musholla Al-Makaromah
  alt_name: []
  latitude: -6.266207099543862
  longitude: 106.85725888300209
  type: way
  amenity_type: place_of_worship
- id: 315408823
  name: Musholla Komp. Ciliwung
  alt_name: []
  latitude: -6.266106742991592
  longitude: 106.85848937874711
  type: way
  amenity_type: place_of_worship
- id: 315410108
  name: Masjid At Thoibah
  alt_name: []
  latitude: -6.267872300000001
  longitude: 106.86245420000003
  type: way
  amenity_type: place_of_worship
- id: 315410109
  name: Musholla Baitul Rahman
  alt_name: []
  latitude: -6.26762815
  longitude: 106.86019234999999
  type: way
  amenity_type: place_of_worship
- id: 315410572
  name: Masjid Jami' As Sa'adah
  alt_name: []
  latitude: -6.276241199999999
  longitude: 106.85542669999998
  type: way
  amenity_type: place_of_worship
- id: 315410573
  name: Masjid Istiqomah
  alt_name: []
  latitude: -6.289262466697921
  longitude: 106.85139004996381
  type: way
  amenity_type: place_of_worship
- id: 315410574
  name: Masjid Jami' Nurul Huda
  alt_name: []
  latitude: -6.274212675829078
  longitude: 106.8542346406341
  type: way
  amenity_type: place_of_worship
- id: 315410575
  name: Mushala An Nur
  alt_name: []
  latitude: -6.283514980962807
  longitude: 106.85512001463576
  type: way
  amenity_type: place_of_worship
- id: 315410576
  name: Mushala Haqqul Yaqin
  alt_name: []
  latitude: -6.285722427725019
  longitude: 106.84802734152957
  type: way
  amenity_type: place_of_worship
- id: 315410577
  name: Mushala Nurul Hag
  alt_name: []
  latitude: -6.2862744264271635
  longitude: 106.848032691505
  type: way
  amenity_type: place_of_worship
- id: 315410578
  name: Mushala
  alt_name: []
  latitude: -6.28689658576667
  longitude: 106.85533362851247
  type: way
  amenity_type: place_of_worship
- id: 315410663
  name: Musholla Al-Fatah
  alt_name: []
  latitude: -6.26376347932689
  longitude: 106.87117980805439
  type: way
  amenity_type: place_of_worship
- id: 315410664
  name: Musholla Al-Hidayah
  alt_name: []
  latitude: -6.263916993928104
  longitude: 106.87176017912645
  type: way
  amenity_type: place_of_worship
- id: 315411484
  name: Musholla Al-Muanah
  alt_name: []
  latitude: -6.262845128334733
  longitude: 106.86980530843513
  type: way
  amenity_type: place_of_worship
- id: 315411485
  name: Musholla Al-Mujahidin
  alt_name: []
  latitude: -6.262794925972153
  longitude: 106.86894254193727
  type: way
  amenity_type: place_of_worship
- id: 315412063
  name: Gereja GIKKI
  alt_name: []
  latitude: -6.258557312856083
  longitude: 106.86968523818103
  type: way
  amenity_type: place_of_worship
- id: 315412064
  name: Gereja Kristen Protestan Pakpak Dairi
  alt_name: []
  latitude: -6.259350299999999
  longitude: 106.86980175000001
  type: way
  amenity_type: place_of_worship
- id: 315412065
  name: Gereja HKI
  alt_name: []
  latitude: -6.258713364777202
  longitude: 106.87018096673701
  type: way
  amenity_type: place_of_worship
- id: 315412066
  name: Gereja Kristen Batak Karo
  alt_name: []
  latitude: -6.258473844569741
  longitude: 106.87132182405324
  type: way
  amenity_type: place_of_worship
- id: 315412067
  name: Gereja Pentakosta Bersyeba
  alt_name: []
  latitude: -6.259085872071456
  longitude: 106.87031419045964
  type: way
  amenity_type: place_of_worship
- id: 315412068
  name: Gereja Pentakosta
  alt_name: []
  latitude: -6.258770300000001
  longitude: 106.87039045
  type: way
  amenity_type: place_of_worship
- id: 315412069
  name: Gereja Pentakosta
  alt_name: []
  latitude: -6.259387100000001
  longitude: 106.86995724999998
  type: way
  amenity_type: place_of_worship
- id: 315412896
  name: Musholla Attaqwa
  alt_name: []
  latitude: -6.256634277845069
  longitude: 106.8719448544336
  type: way
  amenity_type: place_of_worship
- id: 315412898
  name: Musholla Nurilan
  alt_name: []
  latitude: -6.257851649999999
  longitude: 106.87208364999998
  type: way
  amenity_type: place_of_worship
- id: 315413614
  name: Musholla Attaufiq
  alt_name: []
  latitude: -6.261349849999998
  longitude: 106.86685800000001
  type: way
  amenity_type: place_of_worship
- id: 315413615
  name: Musholla Darusalam
  alt_name: []
  latitude: -6.2590726000000005
  longitude: 106.86719665000001
  type: way
  amenity_type: place_of_worship
- id: 315413770
  name: Musholla Al-Khairiyah
  alt_name: []
  latitude: -6.261492405653648
  longitude: 106.86582577396649
  type: way
  amenity_type: place_of_worship
- id: 315414412
  name: Musholla Al-Hasan
  alt_name: []
  latitude: -6.257371
  longitude: 106.86692250000002
  type: way
  amenity_type: place_of_worship
- id: 315414413
  name: Masjid Assa'dah
  alt_name: []
  latitude: -6.256038
  longitude: 106.86509575000001
  type: way
  amenity_type: place_of_worship
- id: 315417071
  name: Musholla Al-Hawi
  alt_name: []
  latitude: -6.264170256583409
  longitude: 106.86201726873932
  type: way
  amenity_type: place_of_worship
- id: 315417072
  name: Musholla Nurul Ibad
  alt_name: []
  latitude: -6.263863950000002
  longitude: 106.8591928
  type: way
  amenity_type: place_of_worship
- id: 315703452
  name: Mushala Al Hidayah
  alt_name: []
  latitude: -6.2316899259572
  longitude: 106.86530584056631
  type: way
  amenity_type: place_of_worship
- id: 315703756
  name: Masjid Jami' Baiturrahman
  alt_name: []
  latitude: -6.245641174266153
  longitude: 106.86263399089471
  type: way
  amenity_type: place_of_worship
- id: 315703757
  name: Mushala Darul Umam
  alt_name: []
  latitude: -6.247909632817536
  longitude: 106.86329329596663
