sub-districts:
- id: 5802122
  name: Pekojan
  alt_name: []
  type: relation
  admin_level: '7'
  boundaries: boundaries/5802122.yaml
  lat: -6.1369666
  lon: 106.8040238
- id: 5802126
  name: Mangga Besar
  alt_name: []
  type: relation
  admin_level: '7'
  boundaries: boundaries/5802126.yaml
  lat: -6.1455551
  lon: 106.8187154
- id: 5802127
  name: Jembatan Lima
  alt_name: []
  type: relation
  admin_level: '7'
  boundaries: boundaries/5802127.yaml
  lat: -6.1445905
  lon: 106.8039276
- id: 5802137
  name: Slipi
  alt_name: []
  type: relation
  admin_level: '7'
  boundaries: boundaries/5802137.yaml
  lat: -6.1939108
  lon: 106.8014346
- id: 5802139
  name: Kota Bambu Utara
  alt_name: []
  type: relation
  admin_level: '7'
  boundaries: boundaries/5802139.yaml
  lat: -6.1833002
  lon: 106.8035888
- id: 5802142
  name: Wijaya Kusuma
  alt_name: []
  type: relation
  admin_level: '7'
  boundaries: boundaries/5802142.yaml
  lat: -6.1544417
  lon: 106.7756354
- id: 5802145
  name: Pegadungan
  alt_name: []
  type: relation
  admin_level: '7'
  boundaries: boundaries/5802145.yaml
  lat: -6.1339168
  lon: 106.7019941
- id: 5802149
  name: Kembangan Utara
  alt_name: []
  type: relation
  admin_level: '7'
  boundaries: boundaries/5802149.yaml
  lat: -6.1732667
  lon: 106.7427257
- id: 5802150
  name: Rawa Buaya
  alt_name: []
  type: relation
  admin_level: '7'
  boundaries: boundaries/5802150.yaml
  lat: -6.1616396
  lon: 106.7375147
- id: 5802151
  name: Sukabumi Utara
  alt_name: []
  type: relation
  admin_level: '7'
  boundaries: boundaries/5802151.yaml
  lat: -6.2087582
  lon: 106.7778493
- id: 5802156
  name: Grogol
  alt_name: []
  type: relation
  admin_level: '7'
  boundaries: boundaries/5802156.yaml
  lat: -6.161329
  lon: 106.7948841
- id: 5802166
  name: Krukut
  alt_name: []
  type: relation
  admin_level: '7'
  boundaries: boundaries/5802166.yaml
  lat: -6.1569812
  lon: 106.8154894
- id: 5802168
  name: Jembatan Besi
  alt_name: []
  type: relation
  admin_level: '7'
  boundaries: boundaries/5802168.yaml
  lat: -6.1516382
  lon: 106.7975286
- id: 5802170
  name: Tanjung Duren Selatan
  alt_name: []
  type: relation
  admin_level: '7'
  boundaries: boundaries/5802170.yaml
  lat: -6.1795103
  lon: 106.7886838
- id: 5802171
  name: Tegal Alur
  alt_name: []
  type: relation
  admin_level: '7'
  boundaries: boundaries/5802171.yaml
  lat: -6.1191781
  lon: 106.7164165
- id: 5802174
  name: Kalianyar
  alt_name: []
  type: relation
  admin_level: '7'
  boundaries: boundaries/5802174.yaml
  lat: -6.1577846
  lon: 106.7987842
- id: 5802178
  name: Kota Bambu Selatan
  alt_name: []
  type: relation
  admin_level: '7'
  boundaries: boundaries/5802178.yaml
  lat: -6.1875027
  lon: 106.8035245
- id: 5802179
  name: Duri Utara
  alt_name: []
  type: relation
  admin_level: '7'
  boundaries: boundaries/5802179.yaml
  lat: -6.1539172
  lon: 106.8050298
- id: 5802185
  name: Keagungan
  alt_name: []
  type: relation
  admin_level: '7'
  boundaries: boundaries/5802185.yaml
  lat: -6.1507326
  lon: 106.8145501
- id: 5802188
  name: Kebon Jeruk
  alt_name: []
  type: relation
  admin_level: '7'
  boundaries: boundaries/5802188.yaml
  lat: -6.1956736
  lon: 106.7721481
- id: 5802201
  name: Srengseng
  alt_name: []
  type: relation
  admin_level: '7'
  boundaries: boundaries/5802201.yaml
  lat: -6.2064995
  lon: 106.7541059
- id: 5802204
  name: Kedaung Kali Angke
  alt_name: []
  type: relation
  admin_level: '7'
  boundaries: boundaries/5802204.yaml
  lat: -6.1530918
  lon: 106.7586004
- id: 5802207
  name: Kedoya Selatan
  alt_name: []
  type: relation
  admin_level: '7'
  boundaries: boundaries/5802207.yaml
  lat: -6.180638
  lon: 106.7603535
- id: 5802216
  name: Palmerah
  alt_name: []
  type: relation
  admin_level: '7'
  boundaries: boundaries/5802216.yaml
  lat: -6.2017259
  lon: 106.7903346
- id: 5802222
  name: Pinangsia
  alt_name: []
  type: relation
  admin_level: '7'
  boundaries: boundaries/5802222.yaml
  lat: -6.1355846
  lon: 106.8146408
- id: 5802225
  name: Duri Kepa
  alt_name: []
  type: relation
  admin_level: '7'
  boundaries: boundaries/5802225.yaml
  lat: -6.175123
  lon: 106.7743079
- id: 5802226
  name: Kapuk
  alt_name: []
  type: relation
  admin_level: '7'
  boundaries: boundaries/5802226.yaml
  lat: -6.1391425
  lon: 106.7522077
- id: 5802231
  name: Tanjung Duren Utara
  alt_name: []
  type: relation
  admin_level: '7'
  boundaries: boundaries/5802231.yaml
  lat: -6.17182
  lon: 106.7824559
- id: 5802235
  name: Duri Kosambi
  alt_name: []
  type: relation
  admin_level: '7'
  boundaries: boundaries/5802235.yaml
  lat: -6.1704014
  lon: 106.7201486
- id: 5802239
  name: Jati Pulo
  alt_name: []
  type: relation
  admin_level: '7'
  boundaries: boundaries/5802239.yaml
  lat: -6.1777057
  lon: 106.8036982
- id: 5802248
  name: Tomang
  alt_name: []
  type: relation
  admin_level: '7'
  boundaries: boundaries/5802248.yaml
  lat: -6.1716384
  lon: 106.7968992
- id: 5802250
  name: Tambora
  alt_name: []
  type: relation
  admin_level: '7'
  boundaries: boundaries/5802250.yaml
  lat: -6.1440301
  lon: 106.8087815
- id: 5802252
  name: Cengkareng Timur
  alt_name: []
  type: relation
  admin_level: '7'
  boundaries: boundaries/5802252.yaml
  lat: -6.1409572
  lon: 106.7353678
- id: 5802260
  name: Cengkareng Barat
  alt_name: []
  type: relation
  admin_level: '7'
  boundaries: boundaries/5802260.yaml
  lat: -6.1398647
  lon: 106.7238102
- id: 5802262
  name: Glodok
  alt_name: []
  type: relation
  admin_level: '7'
  boundaries: boundaries/5802262.yaml
  lat: -6.1448405
  lon: 106.8131866
- id: 5802267
  name: Semanan
  alt_name: []
  type: relation
  admin_level: '7'
  boundaries: boundaries/5802267.yaml
  lat: -6.1674843
  lon: 106.7027259
- id: 5802269
  name: Tangki
  alt_name: []
  type: relation
  admin_level: '7'
  boundaries: boundaries/5802269.yaml
  lat: -6.1465657
  lon: 106.8233031
- id: 5802274
  name: Kalideres
  alt_name: []
  type: relation
  admin_level: '7'
  boundaries: boundaries/5802274.yaml
  lat: -6.1509293
  lon: 106.699636
- id: 5802279
  name: Kemanggisan
  alt_name: []
  type: relation
  admin_level: '7'
  boundaries: boundaries/5802279.yaml
  lat: -6.1896703
  lon: 106.7908831
- id: 5802282
  name: Taman Sari
  alt_name:
  - Tamansari
  type: relation
  admin_level: '7'
  boundaries: boundaries/5802282.yaml
  lat: -6.1558531
  lon: 106.8244003
- id: 5802287
  name: Duri Selatan
  alt_name: []
  type: relation
  admin_level: '7'
  boundaries: boundaries/5802287.yaml
  lat: -6.1587842
  lon: 106.8046704
- id: 5802291
  name: Meruya Selatan
  alt_name: []
  type: relation
  admin_level: '7'
  boundaries: boundaries/5802291.yaml
  lat: -6.2101635
  lon: 106.7329989
- id: 5802297
  name: Joglo
  alt_name: []
  type: relation
  admin_level: '7'
  boundaries: boundaries/5802297.yaml
  lat: -6.2197819
  lon: 106.737935
- id: 5802310
  name: Sukabumi Selatan
  alt_name: []
  type: relation
  admin_level: '7'
  boundaries: boundaries/5802310.yaml
  lat: -6.2215483
  lon: 106.7721536
- id: 5802317
  name: Jelambar
  alt_name: []
  type: relation
  admin_level: '7'
  boundaries: boundaries/5802317.yaml
  lat: -6.1593443
  lon: 106.7861493
- id: 5802321
  name: Kedoya Utara
  alt_name: []
  type: relation
  admin_level: '7'
  boundaries: boundaries/5802321.yaml
  lat: -6.1685547
  lon: 106.7609655
- id: 5802324
  name: Meruya Utara
  alt_name: []
  type: relation
  admin_level: '7'
  boundaries: boundaries/5802324.yaml
  lat: -6.1958612
  lon: 106.742505
- id: 5802335
  name: Tanah Sereal
  alt_name: []
  type: relation
  admin_level: '7'
  boundaries: boundaries/5802335.yaml
  lat: -6.1543321
  lon: 106.8093534
- id: 5802347
  name: Jelambar Baru
  alt_name: []
  type: relation
  admin_level: '7'
  boundaries: boundaries/5802347.yaml
  lat: -6.1487012
  lon: 106.7869928
- id: 5802351
  name: Krendang
  alt_name: []
  type: relation
  admin_level: '7'
  boundaries: boundaries/5802351.yaml
  lat: -6.1498636
  lon: 106.8035882
- id: 5802353
  name: Kamal
  alt_name: []
  type: relation
  admin_level: '7'
  boundaries: boundaries/5802353.yaml
  lat: -6.1033968
  lon: 106.6974405
- id: 5802364
  name: Roa Malaka
  alt_name: []
  type: relation
  admin_level: '7'
  boundaries: boundaries/5802364.yaml
  lat: -6.1362105
  lon: 106.8094248
- id: 5802366
  name: Kembangan Selatan
  alt_name: []
  type: relation
  admin_level: '7'
  boundaries: boundaries/5802366.yaml
  lat: -6.1885306
  lon: 106.739284
- id: 5802375
  name: Angke
  alt_name: []
  type: relation
  admin_level: '7'
  boundaries: boundaries/5802375.yaml
  lat: -6.1454245
  lon: 106.7952794
- id: 5802383
  name: Kelapa Dua
  alt_name: []
  type: relation
  admin_level: '7'
  boundaries: boundaries/5802383.yaml
  lat: -6.2095281
  lon: 106.7688125
- id: 5802384
  name: Maphar
  alt_name: []
  type: relation
  admin_level: '7'
  boundaries: boundaries/5802384.yaml
  lat: -6.1558405
  lon: 106.8197615
